{"type": "FeatureCollection", "features": [{"type": "Feature", "properties": {"wikidata": "Q927788", "name": "Torri di Latemar", "status": "missing", "osm_id": null}, "geometry": {"type": "Point", "coordinates": [11.5667, 46.3667]}}, {"type": "Feature", "properties": {"wikidata": "Q968547", "name": "Forte Barba di Fiori", "status": "done", "osm_id": "way/240220865"}, "geometry": {"type": "Point", "coordinates": [10.64273, 46.34759]}}, {"type": "Feature", "properties": {"wikidata": "Q1302616", "name": "Altopiano dello Sciliar", "status": "missing", "osm_id": null}, "geometry": {"type": "Point", "coordinates": [11.51, 46.53]}}, {"type": "Feature", "properties": {"wikidata": "Q1266550", "name": "cima del Vento", "status": "done", "osm_id": "node/1524772258"}, "geometry": {"type": "Point", "coordinates": [12.0175, 46.88972222]}}, {"type": "Feature", "properties": {"wikidata": "Q1529628", "name": "altopiano del Tesino", "status": "missing", "osm_id": null}, "geometry": {"type": "Point", "coordinates": [11.620674, 46.096408]}}, {"type": "Feature", "properties": {"wikidata": "Q1800223", "name": "lago di Lagazuoi", "status": "done", "osm_id": "way/37855506"}, "geometry": {"type": "Point", "coordinates": [12.005, 46.551666666]}}, {"type": "Feature", "properties": {"wikidata": "Q1788991", "name": "ferrovia Locale Lana Postal - Lana di Sopra", "status": "missing", "osm_id": null}, "geometry": {"type": "Point", "coordinates": [11.14055556, 46.61611111]}}, {"type": "Feature", "properties": {"wikidata": "Q3661550", "name": "Cascate Gampelefall", "status": "missing", "osm_id": null}, "geometry": {"type": "Point", "coordinates": [11.6064, 46.8072]}}, {"type": "Feature", "properties": {"wikidata": "Q3640225", "name": "Biotopo Ontaneto di Cengles", "status": "done", "osm_id": "way/441757194"}, "geometry": {"type": "Point", "coordinates": [10.6361, 46.61986]}}, {"type": "Feature", "properties": {"wikidata": "Q3640226", "name": "Biotopo Ontaneto di Sluderno", "status": "missing", "osm_id": null}, "geometry": {"type": "Point", "coordinates": [10.58243, 46.65084]}}, {"type": "Feature", "properties": {"wikidata": "Q3661566", "name": "Cascate di Vandoies", "status": "missing", "osm_id": null}, "geometry": {"type": "Point", "coordinates": [11.7239, 46.8163]}}, {"type": "Feature", "properties": {"wikidata": "Q2239151", "name": "rifugio Malghetta Sciliar", "status": "done", "osm_id": "way/208620122"}, "geometry": {"type": "Point", "coordinates": [11.583651, 46.522113]}}, {"type": "Feature", "properties": {"wikidata": "Q2323619", "name": "Monte della Lepre", "status": "done", "osm_id": "node/514531403"}, "geometry": {"type": "Point", "coordinates": [10.77, 46.766388888]}}, {"type": "Feature", "properties": {"wikidata": "Q2798311", "name": "Commenda di Longomoso", "status": "missing", "osm_id": null}, "geometry": {"type": "Point", "coordinates": [11.46718979, 46.54231262]}}, {"type": "Feature", "properties": {"wikidata": "Q3606683", "name": "Ago di Nardis", "status": "done", "osm_id": "node/560520571"}, "geometry": {"type": "Point", "coordinates": [10.655833, 46.204833]}}, {"type": "Feature", "properties": {"wikidata": "Q3603719", "name": "Abisso di Lamar", "status": "done", "osm_id": "node/2741681966"}, "geometry": {"type": "Point", "coordinates": [11.064416666, 46.129694444]}}, {"type": "Feature", "properties": {"wikidata": "Q3632899", "name": "Bagni di Cortina - Marebbe", "status": "missing", "osm_id": null}, "geometry": {"type": "Point", "coordinates": [11.931666666, 46.695]}}, {"type": "Feature", "properties": {"wikidata": "Q3607608", "name": "Ala", "status": "missing", "osm_id": null}, "geometry": {"type": "Point", "coordinates": [10.99611, 45.76143]}}, {"type": "Feature", "properties": {"wikidata": "Q3862604", "name": "monumento ossario austro-ungarico di Trento", "status": "done", "osm_id": "node/5556435660"}, "geometry": {"type": "Point", "coordinates": [11.11636365, 46.062641117]}}, {"type": "Feature", "properties": {"wikidata": "Q3861741", "name": "Monte Mezzocorona", "status": "missing", "osm_id": null}, "geometry": {"type": "Point", "coordinates": [11.1216, 46.2255]}}, {"type": "Feature", "properties": {"wikidata": "Q3855157", "name": "Meringa", "status": "missing", "osm_id": null}, "geometry": {"type": "Point", "coordinates": [10.56833, 46.47861]}}, {"type": "Feature", "properties": {"wikidata": "Q3843897", "name": "malga Nemes", "status": "done", "osm_id": "way/85603046"}, "geometry": {"type": "Point", "coordinates": [12.43373, 46.67148]}}, {"type": "Feature", "properties": {"wikidata": "Q3777061", "name": "Grotta di Castello Tesino", "status": "done", "osm_id": "node/2378422899"}, "geometry": {"type": "Point", "coordinates": [11.68076, 46.089349]}}, {"type": "Feature", "properties": {"wikidata": "Q3861784", "name": "Monte Nock", "status": "missing", "osm_id": null}, "geometry": {"type": "Point", "coordinates": [11.1825, 46.418119444]}}, {"type": "Feature", "properties": {"wikidata": "Q3868040", "name": "Museo della Grande Guerra sul Lagorai", "status": "missing", "osm_id": null}, "geometry": {"type": "Point", "coordinates": [11.680270945, 46.196332193]}}, {"type": "Feature", "properties": {"wikidata": "Q3803665", "name": "Istituto Provinciale di Statistica", "status": "missing", "osm_id": null}, "geometry": {"type": "Point", "coordinates": [11.364924, 46.497741]}}, {"type": "Feature", "properties": {"wikidata": "Q3854308", "name": "Melta di Gardolo", "status": "done", "osm_id": "node/889464651"}, "geometry": {"type": "Point", "coordinates": [11.11927, 46.09823]}}, {"type": "Feature", "properties": {"wikidata": "Q3695301", "name": "Costa Rotian", "status": "done", "osm_id": "node/1098424466"}, "geometry": {"type": "Point", "coordinates": [10.86233, 46.319]}}, {"type": "Feature", "properties": {"wikidata": "Q3747323", "name": "Fontana Rosmini", "status": "done", "osm_id": "way/63067949"}, "geometry": {"type": "Point", "coordinates": [11.043499, 45.890908]}}, {"type": "Feature", "properties": {"wikidata": "Q3935694", "name": "Rifugio lupi di Toscana", "status": "done", "osm_id": "way/200233134"}, "geometry": {"type": "Point", "coordinates": [10.60548, 45.93643]}}, {"type": "Feature", "properties": {"wikidata": "Q3936152", "name": "Rio Cameras", "status": "missing", "osm_id": null}, "geometry": {"type": "Point", "coordinates": [10.9975, 45.848869444]}}, {"type": "Feature", "properties": {"wikidata": "Q3935643", "name": "rifugio Stella Alpina Spiz Piaz", "status": "done", "osm_id": "way/122118920"}, "geometry": {"type": "Point", "coordinates": [11.638502, 46.44809]}}, {"type": "Feature", "properties": {"wikidata": "Q3954901", "name": "Sella di Bondo", "status": "done", "osm_id": "node/7602536180"}, "geometry": {"type": "Point", "coordinates": [10.687444, 45.995668]}}, {"type": "Feature", "properties": {"wikidata": "Q3907673", "name": "Polsa", "status": "done", "osm_id": "node/393414343"}, "geometry": {"type": "Point", "coordinates": [10.94303, 45.78327]}}, {"type": "Feature", "properties": {"wikidata": "Q3935633", "name": "rifugio Silvio Dorigoni", "status": "done", "osm_id": "way/232381119"}, "geometry": {"type": "Point", "coordinates": [10.751969444, 46.4608]}}, {"type": "Feature", "properties": {"wikidata": "Q4010882", "name": "via ferrata Sass Rigais", "status": "missing", "osm_id": null}, "geometry": {"type": "Point", "coordinates": [11.76627194, 46.60835389]}}, {"type": "Feature", "properties": {"wikidata": "Q3971442", "name": "stazione meteorologica di Anterselva di Mezzo", "status": "missing", "osm_id": null}, "geometry": {"type": "Point", "coordinates": [12.1, 46.85]}}, {"type": "Feature", "properties": {"wikidata": "Q4010881", "name": "Via ferrata Piccolo Cir", "status": "missing", "osm_id": null}, "geometry": {"type": "Point", "coordinates": [11.79956667, 46.55685556]}}, {"type": "Feature", "properties": {"wikidata": "Q3984398", "name": "terme di Comano", "status": "missing", "osm_id": null}, "geometry": {"type": "Point", "coordinates": [10.882309513, 46.042500522]}}, {"type": "Feature", "properties": {"wikidata": "Q9303216", "name": "Raiffeisen Arena", "status": "missing", "osm_id": null}, "geometry": {"type": "Point", "coordinates": [11.6535, 46.7056]}}, {"type": "Feature", "properties": {"wikidata": "Q11825919", "name": "Punta Rossa", "status": "done", "osm_id": "node/321172955"}, "geometry": {"type": "Point", "coordinates": [10.9444, 46.7747]}}, {"type": "Feature", "properties": {"wikidata": "Q15852666", "name": "Centrale viabilit\u00e0", "status": "missing", "osm_id": null}, "geometry": {"type": "Point", "coordinates": [11.317581, 46.494662]}}, {"type": "Feature", "properties": {"wikidata": "Q16563694", "name": "Hotel Orsingher", "status": "done", "osm_id": "node/2394792820"}, "geometry": {"type": "Point", "coordinates": [11.8292957, 46.1753705]}}, {"type": "Feature", "properties": {"wikidata": "Q16620138", "name": "Val Terragnolo", "status": "done", "osm_id": "way/680671130"}, "geometry": {"type": "Point", "coordinates": [11.144388888, 45.875694444]}}, {"type": "Feature", "properties": {"wikidata": "Q17623900", "name": "Casa Andriollo", "status": "done", "osm_id": "way/139940396"}, "geometry": {"type": "Point", "coordinates": [11.46417, 46.04098]}}, {"type": "Feature", "properties": {"wikidata": "Q17631029", "name": "Fucina Zanghellini", "status": "done", "osm_id": "node/4067216267"}, "geometry": {"type": "Point", "coordinates": [11.5264674, 46.05429]}}, {"type": "Feature", "properties": {"wikidata": "Q17636817", "name": "Casa museo degli spaventapasseri", "status": "missing", "osm_id": null}, "geometry": {"type": "Point", "coordinates": [11.377831, 46.054295]}}, {"type": "Feature", "properties": {"wikidata": "Q18472461", "name": "centro storico di Bondone", "status": "missing", "osm_id": null}, "geometry": {"type": "Point", "coordinates": [10.55033, 45.80651]}}, {"type": "Feature", "properties": {"wikidata": "Q18086268", "name": "Torrente Sallagoni", "status": "done", "osm_id": "relation/9713546"}, "geometry": {"type": "Point", "coordinates": [10.934038834, 45.970193006]}}, {"type": "Feature", "properties": {"wikidata": "Q18477011", "name": "Santa Maddalena Alta", "status": "missing", "osm_id": null}, "geometry": {"type": "Point", "coordinates": [11.7192, 46.6451]}}, {"type": "Feature", "properties": {"wikidata": "Q18478843", "name": "Castelletto", "status": "missing", "osm_id": null}, "geometry": {"type": "Point", "coordinates": [11.06388, 46.24335]}}, {"type": "Feature", "properties": {"wikidata": "Q18479179", "name": "Cornal\u00e9", "status": "done", "osm_id": "relation/1377783"}, "geometry": {"type": "Point", "coordinates": [11.01255, 45.882]}}, {"type": "Feature", "properties": {"wikidata": "Q18480791", "name": "Maso San Valentino", "status": "done", "osm_id": "node/5038638830"}, "geometry": {"type": "Point", "coordinates": [11.09692, 46.15961]}}, {"type": "Feature", "properties": {"wikidata": "Q18482419", "name": "Romagnano", "status": "done", "osm_id": "node/1919210128"}, "geometry": {"type": "Point", "coordinates": [11.10563, 46.01807]}}, {"type": "Feature", "properties": {"wikidata": "Q20743898", "name": "rifugio Negritella", "status": "done", "osm_id": "way/664282659"}, "geometry": {"type": "Point", "coordinates": [11.661880499, 46.433706436]}}, {"type": "Feature", "properties": {"wikidata": "Q19971445", "name": "Museo della scuola", "status": "missing", "osm_id": null}, "geometry": {"type": "Point", "coordinates": [11.376252, 46.49861]}}, {"type": "Feature", "properties": {"wikidata": "Q21190272", "name": "via ferrata del Passo Santner", "status": "done", "osm_id": "way/39406919"}, "geometry": {"type": "Point", "coordinates": [11.61397321, 46.442691258]}}, {"type": "Feature", "properties": {"wikidata": "Q20010071", "name": "Valle di San Pellegrino", "status": "missing", "osm_id": null}, "geometry": {"type": "Point", "coordinates": [11.7451358, 46.3740106]}}, {"type": "Feature", "properties": {"wikidata": "Q21190062", "name": "via ferrata \"Ettore Castiglioni\"", "status": "missing", "osm_id": null}, "geometry": {"type": "Point", "coordinates": [10.928716215, 46.172663948]}}, {"type": "Feature", "properties": {"wikidata": "Q22694050", "name": "Tomba a camera di pietra di Quarazze", "status": "missing", "osm_id": null}, "geometry": {"type": "Point", "coordinates": [11.141427, 46.690155]}}, {"type": "Feature", "properties": {"wikidata": "Q24937972", "name": "Lebbrosario di San Nicol\u00f2", "status": "missing", "osm_id": null}, "geometry": {"type": "Point", "coordinates": [11.10777, 46.0612]}}, {"type": "Feature", "properties": {"wikidata": "Q27991177", "name": "monumento ai Kaisersch\u00fctzen", "status": "done", "osm_id": "node/64776777"}, "geometry": {"type": "Point", "coordinates": [11.0951798, 45.9368351]}}, {"type": "Feature", "properties": {"wikidata": "Q27961330", "name": "stazione di Predazzo Sud", "status": "missing", "osm_id": null}, "geometry": {"type": "Point", "coordinates": [11.600675, 46.305351]}}, {"type": "Feature", "properties": {"wikidata": "Q27968192", "name": "Scuola alpina della Guardia di Finanza", "status": "done", "osm_id": "relation/3530009"}, "geometry": {"type": "Point", "coordinates": [11.6013027, 46.3085054]}}, {"type": "Feature", "properties": {"wikidata": "Q18510422", "name": "Valico", "status": "missing", "osm_id": null}, "geometry": {"type": "Point", "coordinates": [10.45892, 46.63631]}}, {"type": "Feature", "properties": {"wikidata": "Q27991213", "name": "monumento in porfido", "status": "missing", "osm_id": null}, "geometry": {"type": "Point", "coordinates": [11.180401, 46.147974]}}, {"type": "Feature", "properties": {"wikidata": "Q27989728", "name": "Palazzo Lutti", "status": "missing", "osm_id": null}, "geometry": {"type": "Point", "coordinates": [10.8635245, 45.8899167]}}, {"type": "Feature", "properties": {"wikidata": "Q27998873", "name": "parco fluviale del fiume Chiese", "status": "missing", "osm_id": null}, "geometry": {"type": "Point", "coordinates": [10.55172, 45.82256]}}, {"type": "Feature", "properties": {"wikidata": "Q29904748", "name": "ex convento di Brancolino", "status": "missing", "osm_id": null}, "geometry": {"type": "Point", "coordinates": [11.0208716, 45.9010781]}}, {"type": "Feature", "properties": {"wikidata": "Q29904988", "name": "casa Patronale di Sant'Anna", "status": "missing", "osm_id": null}, "geometry": {"type": "Point", "coordinates": [11.0427675, 46.0652936]}}, {"type": "Feature", "properties": {"wikidata": "Q30134601", "name": "palazzo municipale", "status": "missing", "osm_id": null}, "geometry": {"type": "Point", "coordinates": [11.0285952, 45.916441]}}, {"type": "Feature", "properties": {"wikidata": "Q30134523", "name": "monte di piet\u00e0", "status": "missing", "osm_id": null}, "geometry": {"type": "Point", "coordinates": [11.0270358, 45.9165206]}}, {"type": "Feature", "properties": {"wikidata": "Q30134610", "name": "Palazzo Camelli Scrinzi", "status": "done", "osm_id": "relation/2166794"}, "geometry": {"type": "Point", "coordinates": [11.03145, 45.91591]}}, {"type": "Feature", "properties": {"wikidata": "Q30134580", "name": "monumento alla Pace", "status": "done", "osm_id": "node/4890327745"}, "geometry": {"type": "Point", "coordinates": [11.03134, 45.91764]}}, {"type": "Feature", "properties": {"wikidata": "Q30134515", "name": "capitello", "status": "missing", "osm_id": null}, "geometry": {"type": "Point", "coordinates": [11.0192749, 45.9195766]}}, {"type": "Feature", "properties": {"wikidata": "Q30890768", "name": "Cardinal", "status": "done", "osm_id": "node/281168694"}, "geometry": {"type": "Point", "coordinates": [11.60185, 46.2439]}}, {"type": "Feature", "properties": {"wikidata": "Q30134618", "name": "Palazzo Libera", "status": "done", "osm_id": "relation/1412726"}, "geometry": {"type": "Point", "coordinates": [11.03013, 45.91639]}}, {"type": "Feature", "properties": {"wikidata": "Q30889042", "name": "stazione di Arco", "status": "missing", "osm_id": null}, "geometry": {"type": "Point", "coordinates": [10.882669, 45.916353]}}, {"type": "Feature", "properties": {"wikidata": "Q30134532", "name": "via Crucis", "status": "missing", "osm_id": null}, "geometry": {"type": "Point", "coordinates": [11.02691, 45.91535]}}, {"type": "Feature", "properties": {"wikidata": "Q36959088", "name": "malga Barognolo", "status": "missing", "osm_id": null}, "geometry": {"type": "Point", "coordinates": [10.99421, 45.724]}}, {"type": "Feature", "properties": {"wikidata": "Q36961723", "name": "malga Fratte", "status": "done", "osm_id": "way/140264903"}, "geometry": {"type": "Point", "coordinates": [10.96455, 45.69603]}}, {"type": "Feature", "properties": {"wikidata": "Q52729826", "name": "Museo Alta Val Venosta", "status": "done", "osm_id": "node/4644517093"}, "geometry": {"type": "Point", "coordinates": [10.542089541, 46.80844622]}}, {"type": "Feature", "properties": {"wikidata": "Q50269593", "name": "piazza Giovanni Serra", "status": "done", "osm_id": "way/525893004"}, "geometry": {"type": "Point", "coordinates": [10.8744154, 46.32591]}}, {"type": "Feature", "properties": {"wikidata": "Q37857248", "name": "Fontana Piazza Municipio", "status": "missing", "osm_id": null}, "geometry": {"type": "Point", "coordinates": [11.5237, 46.06637]}}, {"type": "Feature", "properties": {"wikidata": "Q37856919", "name": "Fontana Via delle Case nove", "status": "done", "osm_id": "way/388474429"}, "geometry": {"type": "Point", "coordinates": [11.53391, 46.05747]}}, {"type": "Feature", "properties": {"wikidata": "Q37857305", "name": "Fontana Via E. Franceschini", "status": "missing", "osm_id": null}, "geometry": {"type": "Point", "coordinates": [11.52254, 46.05816]}}, {"type": "Feature", "properties": {"wikidata": "Q37857320", "name": "Fontana Via Sant\u2019Apollonia", "status": "missing", "osm_id": null}, "geometry": {"type": "Point", "coordinates": [11.51148, 46.07166]}}, {"type": "Feature", "properties": {"wikidata": "Q37857256", "name": "Fontana Via Col Penile", "status": "missing", "osm_id": null}, "geometry": {"type": "Point", "coordinates": [11.52013, 46.06704]}}, {"type": "Feature", "properties": {"wikidata": "Q37857324", "name": "Fontana in localit\u00e0 Torgheli", "status": "missing", "osm_id": null}, "geometry": {"type": "Point", "coordinates": [11.510304817, 46.077432698]}}, {"type": "Feature", "properties": {"wikidata": "Q37857280", "name": "fontana di via San Vito", "status": "missing", "osm_id": null}, "geometry": {"type": "Point", "coordinates": [11.52428, 46.06722]}}, {"type": "Feature", "properties": {"wikidata": "Q37856930", "name": "Fontana in Viale vittime del 27 aprile", "status": "missing", "osm_id": null}, "geometry": {"type": "Point", "coordinates": [11.52291, 46.06595]}}, {"type": "Feature", "properties": {"wikidata": "Q37857313", "name": "Fontana Via Cenone", "status": "missing", "osm_id": null}, "geometry": {"type": "Point", "coordinates": [11.50922, 46.0698]}}, {"type": "Feature", "properties": {"wikidata": "Q37856805", "name": "Fontana Via del Campo del Lago", "status": "missing", "osm_id": null}, "geometry": {"type": "Point", "coordinates": [11.52895, 46.05704]}}, {"type": "Feature", "properties": {"wikidata": "Q37857286", "name": "Fontana in frazione Tomaselli", "status": "missing", "osm_id": null}, "geometry": {"type": "Point", "coordinates": [11.52683, 46.06842]}}, {"type": "Feature", "properties": {"wikidata": "Q37857293", "name": "Fontana Piazza Beata Vergine della Mercede", "status": "done", "osm_id": "node/3916448678"}, "geometry": {"type": "Point", "coordinates": [11.5289, 46.05281]}}, {"type": "Feature", "properties": {"wikidata": "Q37630202", "name": "Fontana Pinzan", "status": "missing", "osm_id": null}, "geometry": {"type": "Point", "coordinates": [11.60143, 46.31075]}}, {"type": "Feature", "properties": {"wikidata": "Q28058702", "name": "San Martino", "status": "done", "osm_id": "node/1107370898"}, "geometry": {"type": "Point", "coordinates": [11.1254297, 46.0735732]}}, {"type": "Feature", "properties": {"wikidata": "Q29680734", "name": "Malga Valmorta", "status": "missing", "osm_id": null}, "geometry": {"type": "Point", "coordinates": [11.344847479, 45.9332109]}}, {"type": "Feature", "properties": {"wikidata": "Q28520844", "name": "\u00d6stlicher Rosshuf", "status": "done", "osm_id": "node/10265671355"}, "geometry": {"type": "Point", "coordinates": [12.222464, 47.060314]}}, {"type": "Feature", "properties": {"wikidata": "Q29680609", "name": "Malga Millegrobbe di Sopra", "status": "missing", "osm_id": null}, "geometry": {"type": "Point", "coordinates": [11.329733474, 45.93632523]}}, {"type": "Feature", "properties": {"wikidata": "Q28480460", "name": "Cima di Casaveccia", "status": "missing", "osm_id": null}, "geometry": {"type": "Point", "coordinates": [12.229328, 47.062915]}}, {"type": "Feature", "properties": {"wikidata": "Q28669894", "name": "Palazzo Piomarta", "status": "done", "osm_id": "relation/1244032"}, "geometry": {"type": "Point", "coordinates": [11.043524, 45.893576]}}, {"type": "Feature", "properties": {"wikidata": "Q29680193", "name": "Sentiero delle sorgenti", "status": "missing", "osm_id": null}, "geometry": {"type": "Point", "coordinates": [11.2622766, 45.9516867]}}, {"type": "Feature", "properties": {"wikidata": "Q55351747", "name": "collezione di presepi del convento Muri Gries", "status": "missing", "osm_id": null}, "geometry": {"type": "Point", "coordinates": [11.354758, 46.498295]}}, {"type": "Feature", "properties": {"wikidata": "Q28670163", "name": "Baita Segantini", "status": "done", "osm_id": "way/127204295"}, "geometry": {"type": "Point", "coordinates": [11.804111111, 46.298611111]}}, {"type": "Feature", "properties": {"wikidata": "Q56257933", "name": "Rete di riserve Alpi Ledrensi", "status": "done", "osm_id": "relation/4710461"}, "geometry": {"type": "Point", "coordinates": [10.58732, 45.81443]}}, {"type": "Feature", "properties": {"wikidata": "Q56258341", "name": "Centro Studi Forestale", "status": "done", "osm_id": "way/149764274"}, "geometry": {"type": "Point", "coordinates": [11.60924, 46.06969]}}, {"type": "Feature", "properties": {"wikidata": "Q55743073", "name": "larice", "status": "missing", "osm_id": null}, "geometry": {"type": "Point", "coordinates": [10.752189, 46.406039]}}, {"type": "Feature", "properties": {"wikidata": "Q55743114", "name": "tiglio selvatico", "status": "done", "osm_id": "node/1748519229"}, "geometry": {"type": "Point", "coordinates": [11.012208, 45.935778]}}, {"type": "Feature", "properties": {"wikidata": "Q55754123", "name": "Regola Feudale", "status": "missing", "osm_id": null}, "geometry": {"type": "Point", "coordinates": [11.602694511, 46.311585779]}}, {"type": "Feature", "properties": {"wikidata": "Q56258701", "name": "percorso fortificazioni prima guerra mondiale battaglia del Melino", "status": "missing", "osm_id": null}, "geometry": {"type": "Point", "coordinates": [10.60773, 45.92626]}}, {"type": "Feature", "properties": {"wikidata": "Q55743093", "name": "castagno di Campestrini", "status": "missing", "osm_id": null}, "geometry": {"type": "Point", "coordinates": [11.455319, 46.0775]}}, {"type": "Feature", "properties": {"wikidata": "Q55743110", "name": "faggio", "status": "missing", "osm_id": null}, "geometry": {"type": "Point", "coordinates": [11.038592, 45.959383]}}, {"type": "Feature", "properties": {"wikidata": "Q55743108", "name": "tiglio selvatico", "status": "missing", "osm_id": null}, "geometry": {"type": "Point", "coordinates": [11.27105, 46.070158]}}, {"type": "Feature", "properties": {"wikidata": "Q55743102", "name": "frassino maggiore", "status": "missing", "osm_id": null}, "geometry": {"type": "Point", "coordinates": [11.150444, 45.743364]}}, {"type": "Feature", "properties": {"wikidata": "Q55743100", "name": "pino cembro", "status": "missing", "osm_id": null}, "geometry": {"type": "Point", "coordinates": [11.395944, 46.219353]}}, {"type": "Feature", "properties": {"wikidata": "Q55743104", "name": "larice", "status": "missing", "osm_id": null}, "geometry": {"type": "Point", "coordinates": [10.645719, 46.299728]}}, {"type": "Feature", "properties": {"wikidata": "Q55743072", "name": "abete rosso", "status": "missing", "osm_id": null}, "geometry": {"type": "Point", "coordinates": [11.782047, 46.293356]}}, {"type": "Feature", "properties": {"wikidata": "Q55743099", "name": "abete rosso", "status": "missing", "osm_id": null}, "geometry": {"type": "Point", "coordinates": [10.538069, 45.967856]}}, {"type": "Feature", "properties": {"wikidata": "Q55743097", "name": "ciliegio selvatico", "status": "missing", "osm_id": null}, "geometry": {"type": "Point", "coordinates": [11.186625, 46.064825]}}, {"type": "Feature", "properties": {"wikidata": "Q55743086", "name": "agrifoglio", "status": "missing", "osm_id": null}, "geometry": {"type": "Point", "coordinates": [11.15135, 46.273942]}}, {"type": "Feature", "properties": {"wikidata": "Q56258000", "name": "Rete di riserve Alpi Ledrensi", "status": "missing", "osm_id": null}, "geometry": {"type": "Point", "coordinates": [10.58666, 45.80966]}}, {"type": "Feature", "properties": {"wikidata": "Q55743092", "name": "faggio", "status": "missing", "osm_id": null}, "geometry": {"type": "Point", "coordinates": [10.774439, 46.017928]}}, {"type": "Feature", "properties": {"wikidata": "Q55743111", "name": "tiglio selvatico", "status": "done", "osm_id": "node/9976358599"}, "geometry": {"type": "Point", "coordinates": [10.999444, 45.931944]}}, {"type": "Feature", "properties": {"wikidata": "Q55743085", "name": "Faggio di Buse dei sassi", "status": "missing", "osm_id": null}, "geometry": {"type": "Point", "coordinates": [11.426986, 46.075019]}}, {"type": "Feature", "properties": {"wikidata": "Q55743103", "name": "faggio", "status": "missing", "osm_id": null}, "geometry": {"type": "Point", "coordinates": [10.991136, 46.098739]}}, {"type": "Feature", "properties": {"wikidata": "Q55743109", "name": "faggio", "status": "missing", "osm_id": null}, "geometry": {"type": "Point", "coordinates": [11.032847, 45.957281]}}, {"type": "Feature", "properties": {"wikidata": "Q55743112", "name": "rovere, tiglio selvatico, faggio, pioppo tremolo", "status": "missing", "osm_id": null}, "geometry": {"type": "Point", "coordinates": [11.014542, 45.939281]}}, {"type": "Feature", "properties": {"wikidata": "Q55802187", "name": "Sog van Rindel", "status": "done", "osm_id": "way/304497125"}, "geometry": {"type": "Point", "coordinates": [11.35564, 46.12134]}}, {"type": "Feature", "properties": {"wikidata": "Q56258837", "name": "sentiero Casina - M. Altissimo", "status": "missing", "osm_id": null}, "geometry": {"type": "Point", "coordinates": [10.8886847, 45.8481835]}}, {"type": "Feature", "properties": {"wikidata": "Q55743106", "name": "castagno", "status": "missing", "osm_id": null}, "geometry": {"type": "Point", "coordinates": [11.270478, 46.071972]}}, {"type": "Feature", "properties": {"wikidata": "Q55743115", "name": "tiglio selvatico", "status": "missing", "osm_id": null}, "geometry": {"type": "Point", "coordinates": [11.031119, 45.949489]}}, {"type": "Feature", "properties": {"wikidata": "Q55743091", "name": "abete bianco", "status": "missing", "osm_id": null}, "geometry": {"type": "Point", "coordinates": [11.52795, 46.272447]}}, {"type": "Feature", "properties": {"wikidata": "Q55743094", "name": "sequoia gigante", "status": "missing", "osm_id": null}, "geometry": {"type": "Point", "coordinates": [11.155264, 46.065997]}}, {"type": "Feature", "properties": {"wikidata": "Q55743088", "name": "larice", "status": "missing", "osm_id": null}, "geometry": {"type": "Point", "coordinates": [10.602906, 46.197064]}}, {"type": "Feature", "properties": {"wikidata": "Q55743096", "name": "sequoia gigante", "status": "missing", "osm_id": null}, "geometry": {"type": "Point", "coordinates": [11.160269, 46.066589]}}, {"type": "Feature", "properties": {"wikidata": "Q56258700", "name": "percorso fortificazioni prima guerra mondiale \"a difesa del Chiese\"", "status": "missing", "osm_id": null}, "geometry": {"type": "Point", "coordinates": [10.6045, 45.91322]}}, {"type": "Feature", "properties": {"wikidata": "Q55743090", "name": "castagno di Parise", "status": "done", "osm_id": "node/3962157817"}, "geometry": {"type": "Point", "coordinates": [11.464597, 46.076767]}}, {"type": "Feature", "properties": {"wikidata": "Q56258646", "name": "nuova fontana", "status": "missing", "osm_id": null}, "geometry": {"type": "Point", "coordinates": [11.09394, 45.93424]}}, {"type": "Feature", "properties": {"wikidata": "Q55743087", "name": "faggio", "status": "missing", "osm_id": null}, "geometry": {"type": "Point", "coordinates": [10.943658, 46.141892]}}, {"type": "Feature", "properties": {"wikidata": "Q55743105", "name": "larice", "status": "missing", "osm_id": null}, "geometry": {"type": "Point", "coordinates": [10.677222, 46.311389]}}, {"type": "Feature", "properties": {"wikidata": "Q55802151", "name": "S P\u00e8rkmandlhaus", "status": "done", "osm_id": "node/4040337618"}, "geometry": {"type": "Point", "coordinates": [11.35413, 46.12934]}}, {"type": "Feature", "properties": {"wikidata": "Q55743101", "name": "sorbo degli uccellatori", "status": "missing", "osm_id": null}, "geometry": {"type": "Point", "coordinates": [11.150592, 45.743336]}}, {"type": "Feature", "properties": {"wikidata": "Q55743089", "name": "castagno", "status": "missing", "osm_id": null}, "geometry": {"type": "Point", "coordinates": [10.559117, 45.851811]}}, {"type": "Feature", "properties": {"wikidata": "Q55743095", "name": "ippocastano", "status": "missing", "osm_id": null}, "geometry": {"type": "Point", "coordinates": [11.140311, 46.090008]}}, {"type": "Feature", "properties": {"wikidata": "Q55743098", "name": "faggio", "status": "missing", "osm_id": null}, "geometry": {"type": "Point", "coordinates": [11.061781, 46.05985]}}, {"type": "Feature", "properties": {"wikidata": "Q47472846", "name": "Val di Fosse nel Parco Naturale Gruppo di Tessa", "status": "missing", "osm_id": null}, "geometry": {"type": "Point", "coordinates": [10.9403, 46.7336]}}, {"type": "Feature", "properties": {"wikidata": "Q47472902", "name": "Lacines - Catena del Monteneve nel Parco naturale Gruppo di Tessa", "status": "missing", "osm_id": null}, "geometry": {"type": "Point", "coordinates": [11.0931, 46.8244]}}, {"type": "Feature", "properties": {"wikidata": "Q47510835", "name": "La Rupe", "status": "done", "osm_id": "way/320634692"}, "geometry": {"type": "Point", "coordinates": [11.097777777, 46.185833333]}}, {"type": "Feature", "properties": {"wikidata": "Q46005617", "name": "convento di Santa Croce alla Spalliera", "status": "done", "osm_id": "relation/1393037"}, "geometry": {"type": "Point", "coordinates": [11.12877, 46.07314]}}, {"type": "Feature", "properties": {"wikidata": "Q47498651", "name": "Zona Umida Valfloriana", "status": "missing", "osm_id": null}, "geometry": {"type": "Point", "coordinates": [11.3825, 46.226388888]}}, {"type": "Feature", "properties": {"wikidata": "Q47510417", "name": "Lagorai Orientale - Cima Bocche", "status": "missing", "osm_id": null}, "geometry": {"type": "Point", "coordinates": [11.743888888, 46.27]}}, {"type": "Feature", "properties": {"wikidata": "Q47495695", "name": "Pal\u00f9 dei Mugheri", "status": "missing", "osm_id": null}, "geometry": {"type": "Point", "coordinates": [11.696111111, 46.298888888]}}, {"type": "Feature", "properties": {"wikidata": "Q47499369", "name": "Adamello Presanella", "status": "missing", "osm_id": null}, "geometry": {"type": "Point", "coordinates": [10.631031023, 46.132281654]}}, {"type": "Feature", "properties": {"wikidata": "Q44741250", "name": "Romarzolo", "status": "done", "osm_id": "node/5266800817"}, "geometry": {"type": "Point", "coordinates": [10.8658235, 45.9206704]}}, {"type": "Feature", "properties": {"wikidata": "Q47499129", "name": "Alta Val del Monte", "status": "missing", "osm_id": null}, "geometry": {"type": "Point", "coordinates": [10.591111, 46.3675]}}, {"type": "Feature", "properties": {"wikidata": "Q47498529", "name": "Marocche di Dro", "status": "missing", "osm_id": null}, "geometry": {"type": "Point", "coordinates": [10.937222222, 45.986111111]}}, {"type": "Feature", "properties": {"wikidata": "Q47495251", "name": "Catena del Lagorai", "status": "missing", "osm_id": null}, "geometry": {"type": "Point", "coordinates": [11.55, 46.219166666]}}, {"type": "Feature", "properties": {"wikidata": "Q67183022", "name": "museo civico di Brunico", "status": "done", "osm_id": "node/2749650579"}, "geometry": {"type": "Point", "coordinates": [11.940991, 46.79627]}}, {"type": "Feature", "properties": {"wikidata": "Q66424349", "name": "Rifugio La Rezila", "status": "done", "osm_id": "way/116380592"}, "geometry": {"type": "Point", "coordinates": [11.69358, 46.35624]}}, {"type": "Feature", "properties": {"wikidata": "Q65157690", "name": "Passo di San Valentino", "status": "missing", "osm_id": null}, "geometry": {"type": "Point", "coordinates": [10.912222222, 45.783055555]}}, {"type": "Feature", "properties": {"wikidata": "Q67772707", "name": "Sito del fu Castel Merlino", "status": "done", "osm_id": "way/563828928"}, "geometry": {"type": "Point", "coordinates": [10.6382923, 45.9530617]}}, {"type": "Feature", "properties": {"wikidata": "Q77825646", "name": "ponte di ferro", "status": "done", "osm_id": "way/26725305"}, "geometry": {"type": "Point", "coordinates": [10.87089, 46.32848]}}, {"type": "Feature", "properties": {"wikidata": "Q55743011", "name": "larice", "status": "missing", "osm_id": null}, "geometry": {"type": "Point", "coordinates": [10.705928, 46.138033]}}, {"type": "Feature", "properties": {"wikidata": "Q55743025", "name": "noce comune", "status": "missing", "osm_id": null}, "geometry": {"type": "Point", "coordinates": [11.031867, 46.362858]}}, {"type": "Feature", "properties": {"wikidata": "Q55743023", "name": "castagno", "status": "missing", "osm_id": null}, "geometry": {"type": "Point", "coordinates": [10.988989, 45.971789]}}, {"type": "Feature", "properties": {"wikidata": "Q55743069", "name": "faggio", "status": "missing", "osm_id": null}, "geometry": {"type": "Point", "coordinates": [11.255242, 46.099219]}}, {"type": "Feature", "properties": {"wikidata": "Q55743000", "name": "castagno", "status": "missing", "osm_id": null}, "geometry": {"type": "Point", "coordinates": [10.931739, 45.948911]}}, {"type": "Feature", "properties": {"wikidata": "Q55743026", "name": "larice", "status": "missing", "osm_id": null}, "geometry": {"type": "Point", "coordinates": [10.828764, 46.337047]}}, {"type": "Feature", "properties": {"wikidata": "Q55743040", "name": "frassino maggiore", "status": "missing", "osm_id": null}, "geometry": {"type": "Point", "coordinates": [11.219133, 45.921356]}}, {"type": "Feature", "properties": {"wikidata": "Q55743058", "name": "cipresso calvo", "status": "missing", "osm_id": null}, "geometry": {"type": "Point", "coordinates": [10.970203, 46.057769]}}, {"type": "Feature", "properties": {"wikidata": "Q55743016", "name": "castagno di Campazzo", "status": "missing", "osm_id": null}, "geometry": {"type": "Point", "coordinates": [11.533506, 46.076181]}}, {"type": "Feature", "properties": {"wikidata": "Q55743061", "name": "abete bianco", "status": "missing", "osm_id": null}, "geometry": {"type": "Point", "coordinates": [11.871625, 46.132106]}}, {"type": "Feature", "properties": {"wikidata": "Q55743014", "name": "Faggio di Monte Lefre", "status": "missing", "osm_id": null}, "geometry": {"type": "Point", "coordinates": [11.560197, 46.059767]}}, {"type": "Feature", "properties": {"wikidata": "Q55743071", "name": "abete rosso", "status": "missing", "osm_id": null}, "geometry": {"type": "Point", "coordinates": [11.588469, 46.314019]}}, {"type": "Feature", "properties": {"wikidata": "Q55743022", "name": "abete rosso", "status": "missing", "osm_id": null}, "geometry": {"type": "Point", "coordinates": [11.4507, 46.273678]}}, {"type": "Feature", "properties": {"wikidata": "Q55743007", "name": "abete bianco", "status": "missing", "osm_id": null}, "geometry": {"type": "Point", "coordinates": [10.722336, 46.004694]}}, {"type": "Feature", "properties": {"wikidata": "Q55743064", "name": "faggio", "status": "missing", "osm_id": null}, "geometry": {"type": "Point", "coordinates": [10.878464, 45.824692]}}, {"type": "Feature", "properties": {"wikidata": "Q55743067", "name": "larice", "status": "missing", "osm_id": null}, "geometry": {"type": "Point", "coordinates": [10.664769, 46.332172]}}, {"type": "Feature", "properties": {"wikidata": "Q55743024", "name": "abete bianco", "status": "missing", "osm_id": null}, "geometry": {"type": "Point", "coordinates": [11.014867, 45.973417]}}, {"type": "Feature", "properties": {"wikidata": "Q55743008", "name": "Farnia di Malga Costa", "status": "missing", "osm_id": null}, "geometry": {"type": "Point", "coordinates": [11.375225, 46.006003]}}, {"type": "Feature", "properties": {"wikidata": "Q55743062", "name": "farnia", "status": "missing", "osm_id": null}, "geometry": {"type": "Point", "coordinates": [11.116831, 46.215944]}}, {"type": "Feature", "properties": {"wikidata": "Q55743075", "name": "larice e abete rosso", "status": "missing", "osm_id": null}, "geometry": {"type": "Point", "coordinates": [10.764939, 46.443822]}}, {"type": "Feature", "properties": {"wikidata": "Q55743006", "name": "faggio", "status": "missing", "osm_id": null}, "geometry": {"type": "Point", "coordinates": [10.719989, 46.018525]}}, {"type": "Feature", "properties": {"wikidata": "Q55743056", "name": "acero di monte", "status": "missing", "osm_id": null}, "geometry": {"type": "Point", "coordinates": [10.642128, 45.814819]}}, {"type": "Feature", "properties": {"wikidata": "Q55743032", "name": "abete rosso", "status": "missing", "osm_id": null}, "geometry": {"type": "Point", "coordinates": [11.216456, 45.903614]}}, {"type": "Feature", "properties": {"wikidata": "Q55743013", "name": "abete rosso", "status": "missing", "osm_id": null}, "geometry": {"type": "Point", "coordinates": [11.708708, 46.493903]}}, {"type": "Feature", "properties": {"wikidata": "Q55743053", "name": "faggio", "status": "done", "osm_id": "node/1081086419"}, "geometry": {"type": "Point", "coordinates": [11.76975, 46.149053]}}, {"type": "Feature", "properties": {"wikidata": "Q55743029", "name": "abete rosso", "status": "missing", "osm_id": null}, "geometry": {"type": "Point", "coordinates": [10.800847, 45.983453]}}, {"type": "Feature", "properties": {"wikidata": "Q55743002", "name": "abete bianco", "status": "missing", "osm_id": null}, "geometry": {"type": "Point", "coordinates": [11.881453, 46.722336]}}, {"type": "Feature", "properties": {"wikidata": "Q55743001", "name": "acero campestre", "status": "missing", "osm_id": null}, "geometry": {"type": "Point", "coordinates": [10.964508, 45.725483]}}, {"type": "Feature", "properties": {"wikidata": "Q55743070", "name": "Olmo montano di Villa Daziaro", "status": "missing", "osm_id": null}, "geometry": {"type": "Point", "coordinates": [11.618044, 46.065597]}}, {"type": "Feature", "properties": {"wikidata": "Q55743010", "name": "larice", "status": "missing", "osm_id": null}, "geometry": {"type": "Point", "coordinates": [10.915969, 46.429406]}}, {"type": "Feature", "properties": {"wikidata": "Q55743065", "name": "larice", "status": "missing", "osm_id": null}, "geometry": {"type": "Point", "coordinates": [10.645553, 46.373944]}}, {"type": "Feature", "properties": {"wikidata": "Q55743019", "name": "pino silvestre", "status": "missing", "osm_id": null}, "geometry": {"type": "Point", "coordinates": [11.396267, 46.284028]}}, {"type": "Feature", "properties": {"wikidata": "Q55743009", "name": "faggio", "status": "missing", "osm_id": null}, "geometry": {"type": "Point", "coordinates": [10.903903, 45.779467]}}, {"type": "Feature", "properties": {"wikidata": "Q55743028", "name": "castagno", "status": "missing", "osm_id": null}, "geometry": {"type": "Point", "coordinates": [11.170064, 46.195256]}}, {"type": "Feature", "properties": {"wikidata": "Q55743057", "name": "abete rosso", "status": "missing", "osm_id": null}, "geometry": {"type": "Point", "coordinates": [11.367317, 45.969492]}}, {"type": "Feature", "properties": {"wikidata": "Q55743063", "name": "olivo", "status": "done", "osm_id": "node/5751042088"}, "geometry": {"type": "Point", "coordinates": [10.884633, 45.868397]}}, {"type": "Feature", "properties": {"wikidata": "Q55743060", "name": "tasso", "status": "missing", "osm_id": null}, "geometry": {"type": "Point", "coordinates": [11.843631, 46.129069]}}, {"type": "Feature", "properties": {"wikidata": "Q55743012", "name": "pino cembro", "status": "missing", "osm_id": null}, "geometry": {"type": "Point", "coordinates": [11.657764, 46.489575]}}, {"type": "Feature", "properties": {"wikidata": "Q55743054", "name": "abete bianco", "status": "missing", "osm_id": null}, "geometry": {"type": "Point", "coordinates": [11.297711, 45.958767]}}, {"type": "Feature", "properties": {"wikidata": "Q55743059", "name": "larice", "status": "missing", "osm_id": null}, "geometry": {"type": "Point", "coordinates": [10.895278, 46.387808]}}, {"type": "Feature", "properties": {"wikidata": "Q55743068", "name": "pino cembro", "status": "missing", "osm_id": null}, "geometry": {"type": "Point", "coordinates": [10.777558, 46.2751]}}, {"type": "Feature", "properties": {"wikidata": "Q55743003", "name": "faggio", "status": "missing", "osm_id": null}, "geometry": {"type": "Point", "coordinates": [10.928911, 45.756042]}}, {"type": "Feature", "properties": {"wikidata": "Q55743004", "name": "tiglio secolare di Maso Weiss", "status": "done", "osm_id": "node/4823767052"}, "geometry": {"type": "Point", "coordinates": [11.543433, 46.079703]}}, {"type": "Feature", "properties": {"wikidata": "Q55743021", "name": "abete rosso e Abete bianco", "status": "missing", "osm_id": null}, "geometry": {"type": "Point", "coordinates": [11.464794, 46.266394]}}, {"type": "Feature", "properties": {"wikidata": "Q55743066", "name": "larice", "status": "missing", "osm_id": null}, "geometry": {"type": "Point", "coordinates": [10.703967, 46.41125]}}, {"type": "Feature", "properties": {"wikidata": "Q55743047", "name": "castagno", "status": "missing", "osm_id": null}, "geometry": {"type": "Point", "coordinates": [11.290006, 46.086167]}}, {"type": "Feature", "properties": {"wikidata": "Q55743020", "name": "larice", "status": "missing", "osm_id": null}, "geometry": {"type": "Point", "coordinates": [11.393767, 46.283125]}}, {"type": "Feature", "properties": {"wikidata": "Q47524540", "name": "Biotopo Rasner M\u00f6ser", "status": "missing", "osm_id": null}, "geometry": {"type": "Point", "coordinates": [12.0747, 46.8075]}}, {"type": "Feature", "properties": {"wikidata": "Q47538916", "name": "Prati Aridi Rocciosi di Agumes", "status": "missing", "osm_id": null}, "geometry": {"type": "Point", "coordinates": [10.5743, 46.6241]}}, {"type": "Feature", "properties": {"wikidata": "Q48807821", "name": "Oltresarca", "status": "missing", "osm_id": null}, "geometry": {"type": "Point", "coordinates": [10.9003, 45.9108]}}, {"type": "Feature", "properties": {"wikidata": "Q47538795", "name": "Biotopo Lago di Favogna", "status": "done", "osm_id": "way/457956327"}, "geometry": {"type": "Point", "coordinates": [11.1856, 46.275]}}, {"type": "Feature", "properties": {"wikidata": "Q48808593", "name": "stazione di Castel d'Enna", "status": "missing", "osm_id": null}, "geometry": {"type": "Point", "coordinates": [11.310079, 46.332081]}}, {"type": "Feature", "properties": {"wikidata": "Q47538948", "name": "Prati Aridi Rocciosi di Sant'Ottilia", "status": "missing", "osm_id": null}, "geometry": {"type": "Point", "coordinates": [10.618, 46.6127]}}, {"type": "Feature", "properties": {"wikidata": "Q49632372", "name": "Teatro Navalge", "status": "done", "osm_id": "way/140829552"}, "geometry": {"type": "Point", "coordinates": [11.656556, 46.3733449]}}, {"type": "Feature", "properties": {"wikidata": "Q48807801", "name": "Fisto", "status": "done", "osm_id": "node/1796357580"}, "geometry": {"type": "Point", "coordinates": [10.7407245, 46.100445]}}, {"type": "Feature", "properties": {"wikidata": "Q48808416", "name": "Strada", "status": "done", "osm_id": "node/432440442"}, "geometry": {"type": "Point", "coordinates": [10.644449939, 45.946300981]}}, {"type": "Feature", "properties": {"wikidata": "Q47538736", "name": "Biotopo Lago di Caldaro", "status": "done", "osm_id": "relation/7633166"}, "geometry": {"type": "Point", "coordinates": [11.2628, 46.3753]}}, {"type": "Feature", "properties": {"wikidata": "Q48808408", "name": "Ronzo", "status": "missing", "osm_id": null}, "geometry": {"type": "Point", "coordinates": [10.950555555, 45.891111111]}}, {"type": "Feature", "properties": {"wikidata": "Q47526650", "name": "Biotopo Buche di ghiaccio", "status": "missing", "osm_id": null}, "geometry": {"type": "Point", "coordinates": [11.2478, 46.4453]}}, {"type": "Feature", "properties": {"wikidata": "Q48808429", "name": "Beseno", "status": "missing", "osm_id": null}, "geometry": {"type": "Point", "coordinates": [11.101871831, 45.937630508]}}, {"type": "Feature", "properties": {"wikidata": "Q47526315", "name": "Biotopo Torbiera Totes Moos", "status": "missing", "osm_id": null}, "geometry": {"type": "Point", "coordinates": [11.3812, 46.4488]}}, {"type": "Feature", "properties": {"wikidata": "Q48808590", "name": "stazione di Villa", "status": "missing", "osm_id": null}, "geometry": {"type": "Point", "coordinates": [11.287253, 46.327283]}}, {"type": "Feature", "properties": {"wikidata": "Q48758422", "name": "galleria Caproni", "status": "missing", "osm_id": null}, "geometry": {"type": "Point", "coordinates": [10.8763, 45.86105]}}, {"type": "Feature", "properties": {"wikidata": "Q55093684", "name": "Presidio Ospedaliero di Arco", "status": "done", "osm_id": "way/860159765"}, "geometry": {"type": "Point", "coordinates": [10.87492, 45.91947]}}, {"type": "Feature", "properties": {"wikidata": "Q96575673", "name": "caldera", "status": "missing", "osm_id": null}, "geometry": {"type": "Point", "coordinates": [11.177472222, 45.966805555]}}, {"type": "Feature", "properties": {"wikidata": "Q55077699", "name": "convento di Sant'Antonio", "status": "done", "osm_id": "relation/1208971"}, "geometry": {"type": "Point", "coordinates": [11.03082, 46.36235]}}, {"type": "Feature", "properties": {"wikidata": "Q97463860", "name": "centro storico di Ala", "status": "missing", "osm_id": null}, "geometry": {"type": "Point", "coordinates": [11.00488, 45.75715]}}, {"type": "Feature", "properties": {"wikidata": "Q97496532", "name": "Val di Tovel", "status": "missing", "osm_id": null}, "geometry": {"type": "Point", "coordinates": [10.983055555, 46.304444444]}}, {"type": "Feature", "properties": {"wikidata": "Q55353033", "name": "istituto Cimbro - Kulturinstitut Lusern", "status": "missing", "osm_id": null}, "geometry": {"type": "Point", "coordinates": [11.32404, 45.92221]}}, {"type": "Feature", "properties": {"wikidata": "Q55677073", "name": "Museo della Malga", "status": "missing", "osm_id": null}, "geometry": {"type": "Point", "coordinates": [10.756789, 46.129417]}}, {"type": "Feature", "properties": {"wikidata": "Q55677118", "name": "Museo Sul fronte dei ricordi", "status": "missing", "osm_id": null}, "geometry": {"type": "Point", "coordinates": [11.6616, 46.37642]}}, {"type": "Feature", "properties": {"wikidata": "Q55352597", "name": "Museo apicoltura - Maso Plattner", "status": "missing", "osm_id": null}, "geometry": {"type": "Point", "coordinates": [11.4230657, 46.5253202]}}, {"type": "Feature", "properties": {"wikidata": "Q55351973", "name": "Museo della frutticoltura", "status": "done", "osm_id": "way/165530529"}, "geometry": {"type": "Point", "coordinates": [11.16248, 46.59963]}}, {"type": "Feature", "properties": {"wikidata": "Q55353011", "name": "Museo del miele di Lavarone", "status": "missing", "osm_id": null}, "geometry": {"type": "Point", "coordinates": [11.2644333, 45.9424995]}}, {"type": "Feature", "properties": {"wikidata": "Q55351963", "name": "Museo contadino di Foiana (Bauernmuseum V\u00f6llan)", "status": "missing", "osm_id": null}, "geometry": {"type": "Point", "coordinates": [11.146831, 46.58817]}}, {"type": "Feature", "properties": {"wikidata": "Q55352889", "name": "La Sia Segheria veneziana", "status": "missing", "osm_id": null}, "geometry": {"type": "Point", "coordinates": [11.772458, 46.476734]}}, {"type": "Feature", "properties": {"wikidata": "Q55670828", "name": "Alpe di Cavallaccio nel Parco Nazionale dello Stelvio", "status": "missing", "osm_id": null}, "geometry": {"type": "Point", "coordinates": [10.5064, 46.6328]}}, {"type": "Feature", "properties": {"wikidata": "Q55677241", "name": "mulini di Aldino", "status": "missing", "osm_id": null}, "geometry": {"type": "Point", "coordinates": [11.355576, 46.365524]}}, {"type": "Feature", "properties": {"wikidata": "Q55677328", "name": "Museo del vino Castel Rametz", "status": "missing", "osm_id": null}, "geometry": {"type": "Point", "coordinates": [11.185541, 46.668587]}}, {"type": "Feature", "properties": {"wikidata": "Q55677267", "name": "Museo della Torre Bianca", "status": "missing", "osm_id": null}, "geometry": {"type": "Point", "coordinates": [11.657629, 46.716545]}}, {"type": "Feature", "properties": {"wikidata": "Q55352541", "name": "Museo territoriale di Nova Ponente", "status": "missing", "osm_id": null}, "geometry": {"type": "Point", "coordinates": [11.425952, 46.4145]}}, {"type": "Feature", "properties": {"wikidata": "Q55670834", "name": "Ultimo - Solda nel Parco Nazionale dello Stelvio", "status": "missing", "osm_id": null}, "geometry": {"type": "Point", "coordinates": [10.8056, 46.5208]}}, {"type": "Feature", "properties": {"wikidata": "Q55352531", "name": "raccolta russo-ortodossa Nadezda Borodina", "status": "missing", "osm_id": null}, "geometry": {"type": "Point", "coordinates": [11.168459, 46.664833]}}, {"type": "Feature", "properties": {"wikidata": "Q55353345", "name": "museo della scuola di Pergine Valsugana", "status": "missing", "osm_id": null}, "geometry": {"type": "Point", "coordinates": [11.2366612, 46.0621737]}}, {"type": "Feature", "properties": {"wikidata": "Q55677314", "name": "Piccolo museo a Lana", "status": "missing", "osm_id": null}, "geometry": {"type": "Point", "coordinates": [11.169455, 46.60811]}}, {"type": "Feature", "properties": {"wikidata": "Q55353329", "name": "museo della banda sociale di Pergine", "status": "missing", "osm_id": null}, "geometry": {"type": "Point", "coordinates": [11.2394729, 46.0583017]}}, {"type": "Feature", "properties": {"wikidata": "Q55352861", "name": "Museo del fossile del Monte Baldo - Collezione Osvaldo Giovanazzi", "status": "missing", "osm_id": null}, "geometry": {"type": "Point", "coordinates": [10.954247, 45.816696]}}, {"type": "Feature", "properties": {"wikidata": "Q55353027", "name": "centro di documentazione Luserna - Dokumentationszentrum Lusern", "status": "done", "osm_id": "node/4646776085"}, "geometry": {"type": "Point", "coordinates": [11.322975218, 45.922041121]}}, {"type": "Feature", "properties": {"wikidata": "Q55353929", "name": "centro visitatori di San Martino di Castrozza", "status": "missing", "osm_id": null}, "geometry": {"type": "Point", "coordinates": [11.798911152, 46.260608272]}}, {"type": "Feature", "properties": {"wikidata": "Q55677093", "name": "parco minerario di Calceranica", "status": "missing", "osm_id": null}, "geometry": {"type": "Point", "coordinates": [11.24146, 46.00263]}}, {"type": "Feature", "properties": {"wikidata": "Q55670829", "name": "Ortles - Monte Madaccio nel Parco Nazionale dello Stelvio", "status": "missing", "osm_id": null}, "geometry": {"type": "Point", "coordinates": [10.5225, 46.5314]}}, {"type": "Feature", "properties": {"wikidata": "Q55677124", "name": "Pejo 1914-1918. la Guerra sulla Porta", "status": "missing", "osm_id": null}, "geometry": {"type": "Point", "coordinates": [10.673533, 46.36278]}}, {"type": "Feature", "properties": {"wikidata": "Q55352521", "name": "Museo ebraico e sinagoga", "status": "missing", "osm_id": null}, "geometry": {"type": "Point", "coordinates": [11.157656, 46.667877]}}, {"type": "Feature", "properties": {"wikidata": "Q55677100", "name": "antica vetreria - Fondazione Maria Pernici", "status": "missing", "osm_id": null}, "geometry": {"type": "Point", "coordinates": [10.756866, 46.167274]}}, {"type": "Feature", "properties": {"wikidata": "Q55385615", "name": "Centro di documentazione della storia e della cultura del Primiero", "status": "missing", "osm_id": null}, "geometry": {"type": "Point", "coordinates": [11.82700205, 46.174876577]}}, {"type": "Feature", "properties": {"wikidata": "Q55352946", "name": "Casa-museo Cirillo Grott", "status": "missing", "osm_id": null}, "geometry": {"type": "Point", "coordinates": [11.133118049, 45.907097667]}}, {"type": "Feature", "properties": {"wikidata": "Q55677173", "name": "collezione di cimeli del Rifugio Cauriol", "status": "missing", "osm_id": null}, "geometry": {"type": "Point", "coordinates": [11.559248, 46.286564]}}, {"type": "Feature", "properties": {"wikidata": "Q55351754", "name": "Memorie della Grande Guerra", "status": "missing", "osm_id": null}, "geometry": {"type": "Point", "coordinates": [11.328746, 46.50298]}}, {"type": "Feature", "properties": {"wikidata": "Q55352966", "name": "Museo etnografico di Maso Spilzi", "status": "missing", "osm_id": null}, "geometry": {"type": "Point", "coordinates": [11.171807, 45.91571]}}, {"type": "Feature", "properties": {"wikidata": "Q55351907", "name": "Museo locale Gudon", "status": "missing", "osm_id": null}, "geometry": {"type": "Point", "coordinates": [11.561035, 46.637527]}}, {"type": "Feature", "properties": {"wikidata": "Q55352695", "name": "Museo agricolo di Brunnenburg (Castel Fontana)", "status": "done", "osm_id": "node/6434733431"}, "geometry": {"type": "Point", "coordinates": [11.151176, 46.691338]}}, {"type": "Feature", "properties": {"wikidata": "Q55351936", "name": "Museo di cultura popolare", "status": "done", "osm_id": "node/8839854774"}, "geometry": {"type": "Point", "coordinates": [11.26981, 46.31244]}}, {"type": "Feature", "properties": {"wikidata": "Q47514959", "name": "Monte Brione", "status": "missing", "osm_id": null}, "geometry": {"type": "Point", "coordinates": [10.876111111, 45.886388888]}}, {"type": "Feature", "properties": {"wikidata": "Q47516711", "name": "Foci dell'Avisio", "status": "missing", "osm_id": null}, "geometry": {"type": "Point", "coordinates": [11.0871, 46.1266]}}, {"type": "Feature", "properties": {"wikidata": "Q47511048", "name": "Torbiera Echen", "status": "missing", "osm_id": null}, "geometry": {"type": "Point", "coordinates": [11.195, 45.913611111]}}, {"type": "Feature", "properties": {"wikidata": "Q106610736", "name": "chiesetta di Malga Selva", "status": "done", "osm_id": "way/934622876"}, "geometry": {"type": "Point", "coordinates": [10.922268985, 46.326193902]}}, {"type": "Feature", "properties": {"wikidata": "Q106451564", "name": "Bocchette Centrali", "status": "done", "osm_id": "relation/7466284"}, "geometry": {"type": "Point", "coordinates": [10.894626798, 46.16482133]}}, {"type": "Feature", "properties": {"wikidata": "Q106975904", "name": "Carcere di Spini di Gardolo", "status": "done", "osm_id": "way/144908702"}, "geometry": {"type": "Point", "coordinates": [11.09424, 46.12682]}}, {"type": "Feature", "properties": {"wikidata": "Q106283413", "name": "Bocchette Alte", "status": "done", "osm_id": "relation/301892"}, "geometry": {"type": "Point", "coordinates": [10.90102, 46.18547]}}, {"type": "Feature", "properties": {"wikidata": "Q106265845", "name": "Ferrata delle M\u00e8sules", "status": "missing", "osm_id": null}, "geometry": {"type": "Point", "coordinates": [11.777222222, 46.510277777]}}, {"type": "Feature", "properties": {"wikidata": "Q106255805", "name": "Bivacco Ettore Castiglioni", "status": "done", "osm_id": "node/7015155900"}, "geometry": {"type": "Point", "coordinates": [10.868888888, 46.162219444]}}, {"type": "Feature", "properties": {"wikidata": "Q106397066", "name": "chiesetta alpina", "status": "done", "osm_id": "way/80501436"}, "geometry": {"type": "Point", "coordinates": [11.354136579, 46.213928502]}}, {"type": "Feature", "properties": {"wikidata": "Q101094184", "name": "capitello votivo", "status": "done", "osm_id": "node/1621460328"}, "geometry": {"type": "Point", "coordinates": [11.404367207, 46.039599344]}}, {"type": "Feature", "properties": {"wikidata": "Q100874560", "name": "capitello votivo", "status": "missing", "osm_id": null}, "geometry": {"type": "Point", "coordinates": [11.214861111, 45.952416666]}}, {"type": "Feature", "properties": {"wikidata": "Q100774077", "name": "chiesetta di San Maurizio", "status": "done", "osm_id": "way/724507460"}, "geometry": {"type": "Point", "coordinates": [10.9234612, 46.3783439]}}, {"type": "Feature", "properties": {"wikidata": "Q55741092", "name": "abete rosso", "status": "missing", "osm_id": null}, "geometry": {"type": "Point", "coordinates": [11.846581, 46.819169]}}, {"type": "Feature", "properties": {"wikidata": "Q55741143", "name": "tiglio nostrale", "status": "missing", "osm_id": null}, "geometry": {"type": "Point", "coordinates": [11.181647, 46.272406]}}, {"type": "Feature", "properties": {"wikidata": "Q55677372", "name": "Mondo treno", "status": "missing", "osm_id": null}, "geometry": {"type": "Point", "coordinates": [11.059673, 46.66956]}}, {"type": "Feature", "properties": {"wikidata": "Q55741150", "name": "platano comune", "status": "missing", "osm_id": null}, "geometry": {"type": "Point", "coordinates": [11.156119, 46.670961]}}, {"type": "Feature", "properties": {"wikidata": "Q55741163", "name": "castagno", "status": "missing", "osm_id": null}, "geometry": {"type": "Point", "coordinates": [11.191433, 46.689919]}}, {"type": "Feature", "properties": {"wikidata": "Q55741090", "name": "sequoia gigante", "status": "missing", "osm_id": null}, "geometry": {"type": "Point", "coordinates": [11.184975, 46.293961]}}, {"type": "Feature", "properties": {"wikidata": "Q55741080", "name": "platano comune", "status": "done", "osm_id": "node/9277206946"}, "geometry": {"type": "Point", "coordinates": [11.357736, 46.496725]}}, {"type": "Feature", "properties": {"wikidata": "Q55741093", "name": "ippocastano", "status": "missing", "osm_id": null}, "geometry": {"type": "Point", "coordinates": [11.860839, 46.619422]}}, {"type": "Feature", "properties": {"wikidata": "Q55741146", "name": "sequoia gigante", "status": "missing", "osm_id": null}, "geometry": {"type": "Point", "coordinates": [11.166653, 46.669906]}}, {"type": "Feature", "properties": {"wikidata": "Q55677413", "name": "Archeoparc Velturno", "status": "missing", "osm_id": null}, "geometry": {"type": "Point", "coordinates": [11.598839, 46.669132]}}, {"type": "Feature", "properties": {"wikidata": "Q55741091", "name": "larice", "status": "missing", "osm_id": null}, "geometry": {"type": "Point", "coordinates": [10.610372, 46.834342]}}, {"type": "Feature", "properties": {"wikidata": "Q55741096", "name": "sequoia gigante", "status": "missing", "osm_id": null}, "geometry": {"type": "Point", "coordinates": [10.519697, 46.702908]}}, {"type": "Feature", "properties": {"wikidata": "Q55741154", "name": "abete rosso", "status": "done", "osm_id": "node/1970234244"}, "geometry": {"type": "Point", "coordinates": [11.375842, 46.880806]}}, {"type": "Feature", "properties": {"wikidata": "Q55741161", "name": "pino cembro", "status": "missing", "osm_id": null}, "geometry": {"type": "Point", "coordinates": [11.467164, 46.791614]}}, {"type": "Feature", "properties": {"wikidata": "Q55741082", "name": "abete rosso", "status": "missing", "osm_id": null}, "geometry": {"type": "Point", "coordinates": [11.301772, 46.963092]}}, {"type": "Feature", "properties": {"wikidata": "Q55741079", "name": "sequoia gigante", "status": "missing", "osm_id": null}, "geometry": {"type": "Point", "coordinates": [11.233256, 46.438922]}}, {"type": "Feature", "properties": {"wikidata": "Q55741157", "name": "pino cembro", "status": "missing", "osm_id": null}, "geometry": {"type": "Point", "coordinates": [11.345792, 46.594469]}}, {"type": "Feature", "properties": {"wikidata": "Q55741152", "name": "acero riccio", "status": "missing", "osm_id": null}, "geometry": {"type": "Point", "coordinates": [11.994914, 46.810464]}}, {"type": "Feature", "properties": {"wikidata": "Q55741086", "name": "rovere", "status": "missing", "osm_id": null}, "geometry": {"type": "Point", "coordinates": [11.947656, 46.804647]}}, {"type": "Feature", "properties": {"wikidata": "Q55742997", "name": "faggio", "status": "missing", "osm_id": null}, "geometry": {"type": "Point", "coordinates": [10.982097, 45.692139]}}, {"type": "Feature", "properties": {"wikidata": "Q55741167", "name": "alloro", "status": "missing", "osm_id": null}, "geometry": {"type": "Point", "coordinates": [11.135186, 46.691883]}}, {"type": "Feature", "properties": {"wikidata": "Q55741145", "name": "ippocastano", "status": "missing", "osm_id": null}, "geometry": {"type": "Point", "coordinates": [11.16435, 46.669942]}}, {"type": "Feature", "properties": {"wikidata": "Q55677408", "name": "Archeoparc Villandro", "status": "missing", "osm_id": null}, "geometry": {"type": "Point", "coordinates": [11.541405, 46.633877]}}, {"type": "Feature", "properties": {"wikidata": "Q55742996", "name": "faggio", "status": "missing", "osm_id": null}, "geometry": {"type": "Point", "coordinates": [10.981767, 45.703392]}}, {"type": "Feature", "properties": {"wikidata": "Q55742999", "name": "abete rosso", "status": "missing", "osm_id": null}, "geometry": {"type": "Point", "coordinates": [11.272908, 46.226142]}}, {"type": "Feature", "properties": {"wikidata": "Q55677397", "name": "Museo dei presepi e dell\u2019arte Popolare Maranatha", "status": "missing", "osm_id": null}, "geometry": {"type": "Point", "coordinates": [11.963752, 46.990807]}}, {"type": "Feature", "properties": {"wikidata": "Q55741156", "name": "tiglio nostrale", "status": "missing", "osm_id": null}, "geometry": {"type": "Point", "coordinates": [11.282106, 46.276606]}}, {"type": "Feature", "properties": {"wikidata": "Q55741164", "name": "corniolo", "status": "missing", "osm_id": null}, "geometry": {"type": "Point", "coordinates": [11.276156, 46.514575]}}, {"type": "Feature", "properties": {"wikidata": "Q55741169", "name": "larice", "status": "missing", "osm_id": null}, "geometry": {"type": "Point", "coordinates": [10.922572, 46.478736]}}, {"type": "Feature", "properties": {"wikidata": "Q55741155", "name": "castagno", "status": "missing", "osm_id": null}, "geometry": {"type": "Point", "coordinates": [11.3759, 46.546603]}}, {"type": "Feature", "properties": {"wikidata": "Q55677385", "name": "Museo Mansio Sebatum", "status": "missing", "osm_id": null}, "geometry": {"type": "Point", "coordinates": [11.902533, 46.783123]}}, {"type": "Feature", "properties": {"wikidata": "Q55741149", "name": "libocedro", "status": "missing", "osm_id": null}, "geometry": {"type": "Point", "coordinates": [11.170231, 46.666011]}}, {"type": "Feature", "properties": {"wikidata": "Q55742994", "name": "faggio", "status": "missing", "osm_id": null}, "geometry": {"type": "Point", "coordinates": [10.993167, 45.713361]}}, {"type": "Feature", "properties": {"wikidata": "Q55741162", "name": "pino cembro", "status": "missing", "osm_id": null}, "geometry": {"type": "Point", "coordinates": [11.405858, 46.754208]}}, {"type": "Feature", "properties": {"wikidata": "Q55741085", "name": "sequoia gigante", "status": "missing", "osm_id": null}, "geometry": {"type": "Point", "coordinates": [11.650272, 46.691175]}}, {"type": "Feature", "properties": {"wikidata": "Q55741147", "name": "cedro dell'Himalaya", "status": "missing", "osm_id": null}, "geometry": {"type": "Point", "coordinates": [11.166756, 46.6699]}}, {"type": "Feature", "properties": {"wikidata": "Q55741148", "name": "platano occidentale", "status": "missing", "osm_id": null}, "geometry": {"type": "Point", "coordinates": [11.162319, 46.667125]}}, {"type": "Feature", "properties": {"wikidata": "Q55741521", "name": "faggio", "status": "missing", "osm_id": null}, "geometry": {"type": "Point", "coordinates": [12.000625, 46.5866]}}, {"type": "Feature", "properties": {"wikidata": "Q55741170", "name": "abete rosso", "status": "missing", "osm_id": null}, "geometry": {"type": "Point", "coordinates": [11.963522, 46.963522]}}, {"type": "Feature", "properties": {"wikidata": "Q55741171", "name": "castagno", "status": "missing", "osm_id": null}, "geometry": {"type": "Point", "coordinates": [11.630575, 46.747775]}}, {"type": "Feature", "properties": {"wikidata": "Q55741158", "name": "larice", "status": "missing", "osm_id": null}, "geometry": {"type": "Point", "coordinates": [11.294731, 46.557636]}}, {"type": "Feature", "properties": {"wikidata": "Q55741089", "name": "castagno", "status": "missing", "osm_id": null}, "geometry": {"type": "Point", "coordinates": [11.407611, 46.489764]}}, {"type": "Feature", "properties": {"wikidata": "Q55741151", "name": "tiglio selvatico", "status": "missing", "osm_id": null}, "geometry": {"type": "Point", "coordinates": [11.64165, 46.776203]}}, {"type": "Feature", "properties": {"wikidata": "Q55741094", "name": "castagno", "status": "missing", "osm_id": null}, "geometry": {"type": "Point", "coordinates": [11.568711, 46.633681]}}, {"type": "Feature", "properties": {"wikidata": "Q55741083", "name": "castagno", "status": "missing", "osm_id": null}, "geometry": {"type": "Point", "coordinates": [11.675994, 46.715742]}}, {"type": "Feature", "properties": {"wikidata": "Q55741088", "name": "castagno", "status": "missing", "osm_id": null}, "geometry": {"type": "Point", "coordinates": [11.554811, 46.646836]}}, {"type": "Feature", "properties": {"wikidata": "Q55741153", "name": "castagno", "status": "missing", "osm_id": null}, "geometry": {"type": "Point", "coordinates": [11.348797, 46.893089]}}, {"type": "Feature", "properties": {"wikidata": "Q55741166", "name": "castagno", "status": "missing", "osm_id": null}, "geometry": {"type": "Point", "coordinates": [11.154589, 46.696336]}}, {"type": "Feature", "properties": {"wikidata": "Q55742995", "name": "faggio", "status": "missing", "osm_id": null}, "geometry": {"type": "Point", "coordinates": [10.986433, 45.709328]}}, {"type": "Feature", "properties": {"wikidata": "Q102185006", "name": "capitello votivo", "status": "missing", "osm_id": null}, "geometry": {"type": "Point", "coordinates": [11.03101, 45.7813]}}, {"type": "Feature", "properties": {"wikidata": "Q102068776", "name": "cappella", "status": "done", "osm_id": "node/458872984"}, "geometry": {"type": "Point", "coordinates": [11.084944444, 45.777222222]}}, {"type": "Feature", "properties": {"wikidata": "Q107067556", "name": "cappella cimiteriale", "status": "missing", "osm_id": null}, "geometry": {"type": "Point", "coordinates": [11.601407, 46.667859]}}, {"type": "Feature", "properties": {"wikidata": "Q107067560", "name": "cappella cimiteriale", "status": "missing", "osm_id": null}, "geometry": {"type": "Point", "coordinates": [11.675737, 46.698253]}}, {"type": "Feature", "properties": {"wikidata": "Q107067564", "name": "cappella cimiteriale", "status": "done", "osm_id": "way/168133881"}, "geometry": {"type": "Point", "coordinates": [12.044828, 46.758123]}}, {"type": "Feature", "properties": {"wikidata": "Q107067557", "name": "cappella del cimitero", "status": "missing", "osm_id": null}, "geometry": {"type": "Point", "coordinates": [11.276646, 46.463636]}}, {"type": "Feature", "properties": {"wikidata": "Q107067561", "name": "cappella cimiteriale", "status": "done", "osm_id": "way/1466211295"}, "geometry": {"type": "Point", "coordinates": [12.233543, 46.746085]}}, {"type": "Feature", "properties": {"wikidata": "Q88398498", "name": "Rifugio Micheluzzi", "status": "done", "osm_id": "node/9951593620"}, "geometry": {"type": "Point", "coordinates": [11.707222222, 46.490555555]}}, {"type": "Feature", "properties": {"wikidata": "Q88104004", "name": "museo ebraico", "status": "missing", "osm_id": null}, "geometry": {"type": "Point", "coordinates": [11.15765, 46.66824]}}, {"type": "Feature", "properties": {"wikidata": "Q106211530", "name": "cappella della Madonna del Buon Consiglio", "status": "done", "osm_id": "way/165771460"}, "geometry": {"type": "Point", "coordinates": [10.547866377, 45.838505684]}}, {"type": "Feature", "properties": {"wikidata": "Q106142992", "name": "chiesa di Sant'Ubaldo", "status": "done", "osm_id": "way/69713002"}, "geometry": {"type": "Point", "coordinates": [10.881399495, 46.130065079]}}, {"type": "Feature", "properties": {"wikidata": "Q85842219", "name": "Borgo antico", "status": "missing", "osm_id": null}, "geometry": {"type": "Point", "coordinates": [11.194594353, 46.144221452]}}, {"type": "Feature", "properties": {"wikidata": "Q98669488", "name": "Monte Chiodo", "status": "done", "osm_id": "node/2161891755"}, "geometry": {"type": "Point", "coordinates": [10.8529, 46.475430555]}}, {"type": "Feature", "properties": {"wikidata": "Q107067508", "name": "cappella cimiteriale", "status": "missing", "osm_id": null}, "geometry": {"type": "Point", "coordinates": [11.621234, 46.652502]}}, {"type": "Feature", "properties": {"wikidata": "Q107067509", "name": "cappella cimiteriale", "status": "missing", "osm_id": null}, "geometry": {"type": "Point", "coordinates": [11.627185, 46.839479]}}, {"type": "Feature", "properties": {"wikidata": "Q107043295", "name": "lago Trenta", "status": "done", "osm_id": "way/95099774"}, "geometry": {"type": "Point", "coordinates": [10.87453783, 46.448893034]}}, {"type": "Feature", "properties": {"wikidata": "Q107076965", "name": "capitello votivo", "status": "missing", "osm_id": null}, "geometry": {"type": "Point", "coordinates": [11.366858, 46.277509]}}, {"type": "Feature", "properties": {"wikidata": "Q60347463", "name": "capitello votivo", "status": "done", "osm_id": "way/1024886104"}, "geometry": {"type": "Point", "coordinates": [11.251083333, 46.074222222]}}, {"type": "Feature", "properties": {"wikidata": "Q105529180", "name": "Castel Niederhaus", "status": "missing", "osm_id": null}, "geometry": {"type": "Point", "coordinates": [11.35671, 46.4986]}}, {"type": "Feature", "properties": {"wikidata": "Q59199466", "name": "Targa commemorativa dedicata a Giovanni Serra", "status": "done", "osm_id": "node/6092537711"}, "geometry": {"type": "Point", "coordinates": [10.8744793, 46.3258151]}}, {"type": "Feature", "properties": {"wikidata": "Q105516650", "name": "cappella del cimitero", "status": "done", "osm_id": "way/909037688"}, "geometry": {"type": "Point", "coordinates": [11.074250735, 46.308801033]}}, {"type": "Feature", "properties": {"wikidata": "Q105637346", "name": "chiesa della Trasfigurazione del Signore", "status": "done", "osm_id": "way/88226793"}, "geometry": {"type": "Point", "coordinates": [10.8097366, 46.3021483]}}, {"type": "Feature", "properties": {"wikidata": "Q105316676", "name": "trincee della Guerra", "status": "missing", "osm_id": null}, "geometry": {"type": "Point", "coordinates": [11.3289642, 45.9401021]}}, {"type": "Feature", "properties": {"wikidata": "Q105530235", "name": "cappella di Sant'Antonio", "status": "done", "osm_id": "way/436634233"}, "geometry": {"type": "Point", "coordinates": [10.7422833, 46.2971578]}}, {"type": "Feature", "properties": {"wikidata": "Q62129027", "name": "Sentiero dei Serbi", "status": "done", "osm_id": "relation/2186963"}, "geometry": {"type": "Point", "coordinates": [10.97962, 45.92811]}}, {"type": "Feature", "properties": {"wikidata": "Q103159462", "name": "capitello votivo", "status": "done", "osm_id": "way/880144111"}, "geometry": {"type": "Point", "coordinates": [11.096219013, 45.790637934]}}, {"type": "Feature", "properties": {"wikidata": "Q103137577", "name": "cappella di Maria Rifugio dei Peccatori", "status": "done", "osm_id": "way/880144114"}, "geometry": {"type": "Point", "coordinates": [11.039397436, 45.90327093]}}, {"type": "Feature", "properties": {"wikidata": "Q102824211", "name": "capitello votivo", "status": "done", "osm_id": "way/879402853"}, "geometry": {"type": "Point", "coordinates": [11.03320588, 45.915102575]}}, {"type": "Feature", "properties": {"wikidata": "Q102763087", "name": "chiesa dei Santi Martiri Anauniesi", "status": "done", "osm_id": "way/68981346"}, "geometry": {"type": "Point", "coordinates": [11.029603832, 45.868180723]}}, {"type": "Feature", "properties": {"wikidata": "Q56357749", "name": "centrale di Torbole", "status": "done", "osm_id": "relation/3587561"}, "geometry": {"type": "Point", "coordinates": [10.883083333, 45.883055555]}}, {"type": "Feature", "properties": {"wikidata": "Q56294809", "name": "Waltherpark", "status": "missing", "osm_id": null}, "geometry": {"type": "Point", "coordinates": [11.35574, 46.49634]}}, {"type": "Feature", "properties": {"wikidata": "Q56580070", "name": "ex centralina idroelettrica", "status": "missing", "osm_id": null}, "geometry": {"type": "Point", "coordinates": [11.398108903, 46.052634369]}}, {"type": "Feature", "properties": {"wikidata": "Q56577660", "name": "villa Waiz", "status": "missing", "osm_id": null}, "geometry": {"type": "Point", "coordinates": [11.4097241, 46.0510669]}}, {"type": "Feature", "properties": {"wikidata": "Q56629604", "name": "abete bianco", "status": "missing", "osm_id": null}, "geometry": {"type": "Point", "coordinates": [10.537747, 45.909428]}}, {"type": "Feature", "properties": {"wikidata": "Q103718247", "name": "chiesa della comunit\u00e0 monastica Fraternit\u00e0 di Ges\u00f9", "status": "done", "osm_id": "way/175748549"}, "geometry": {"type": "Point", "coordinates": [11.082510567, 45.853302437]}}, {"type": "Feature", "properties": {"wikidata": "Q103831954", "name": "Stazione di Nago-Torbole", "status": "missing", "osm_id": null}, "geometry": {"type": "Point", "coordinates": [10.893048, 45.879724]}}, {"type": "Feature", "properties": {"wikidata": "Q103842741", "name": "cappella della Madonna di Loreto", "status": "done", "osm_id": "way/846347986"}, "geometry": {"type": "Point", "coordinates": [10.98842, 46.16371]}}, {"type": "Feature", "properties": {"wikidata": "Q104370053", "name": "chiesa di San Brizio", "status": "done", "osm_id": "node/5021534689"}, "geometry": {"type": "Point", "coordinates": [10.8315, 45.89393]}}, {"type": "Feature", "properties": {"wikidata": "Q104036867", "name": "cappella dei caduti", "status": "done", "osm_id": "way/172896397"}, "geometry": {"type": "Point", "coordinates": [11.816179019, 46.430207776]}}, {"type": "Feature", "properties": {"wikidata": "Q104217293", "name": "area archeologica di San Cassiano", "status": "done", "osm_id": "way/238789723"}, "geometry": {"type": "Point", "coordinates": [10.838944444, 45.89525]}}, {"type": "Feature", "properties": {"wikidata": "Q94643633", "name": "Riserva locale Pal\u00f9 delle Val", "status": "missing", "osm_id": null}, "geometry": {"type": "Point", "coordinates": [11.4295, 46.3072]}}, {"type": "Feature", "properties": {"wikidata": "Q94944662", "name": "Riserva locale Lago Covel", "status": "missing", "osm_id": null}, "geometry": {"type": "Point", "coordinates": [10.65012, 46.36964]}}, {"type": "Feature", "properties": {"wikidata": "Q94540075", "name": "Riserva naturale locale Cimego", "status": "missing", "osm_id": null}, "geometry": {"type": "Point", "coordinates": [10.61827, 45.91]}}, {"type": "Feature", "properties": {"wikidata": "Q94644345", "name": "Riserva locale Casotte", "status": "missing", "osm_id": null}, "geometry": {"type": "Point", "coordinates": [11.00887, 45.93033]}}, {"type": "Feature", "properties": {"wikidata": "Q94752935", "name": "Riserva locale Cinque valli (B)", "status": "missing", "osm_id": null}, "geometry": {"type": "Point", "coordinates": [11.36413, 46.0537]}}, {"type": "Feature", "properties": {"wikidata": "Q94752758", "name": "Riserva locale Cinque valli (A)", "status": "missing", "osm_id": null}, "geometry": {"type": "Point", "coordinates": [11.36093, 46.05294]}}, {"type": "Feature", "properties": {"wikidata": "Q94944518", "name": "Riserva locale Pisorno", "status": "missing", "osm_id": null}, "geometry": {"type": "Point", "coordinates": [11.76818, 46.20494]}}, {"type": "Feature", "properties": {"wikidata": "Q94521243", "name": "Riserva locale Val di Gola", "status": "missing", "osm_id": null}, "geometry": {"type": "Point", "coordinates": [10.82679, 45.84385]}}, {"type": "Feature", "properties": {"wikidata": "Q94643787", "name": "Riserva naturale locale Sorini", "status": "missing", "osm_id": null}, "geometry": {"type": "Point", "coordinates": [10.5761, 45.86207]}}, {"type": "Feature", "properties": {"wikidata": "Q94643861", "name": "Riserva locale Pozza del Prete", "status": "missing", "osm_id": null}, "geometry": {"type": "Point", "coordinates": [10.85483, 45.9601]}}, {"type": "Feature", "properties": {"wikidata": "Q94944703", "name": "Parco di Villa Welsperg", "status": "missing", "osm_id": null}, "geometry": {"type": "Point", "coordinates": [11.8689, 46.1971]}}, {"type": "Feature", "properties": {"wikidata": "Q94537851", "name": "Riserva locale Monpiana 2", "status": "missing", "osm_id": null}, "geometry": {"type": "Point", "coordinates": [11.25317, 46.22838]}}, {"type": "Feature", "properties": {"wikidata": "Q94942464", "name": "Riserva locale Lago di Cavallazza", "status": "missing", "osm_id": null}, "geometry": {"type": "Point", "coordinates": [11.77875, 46.28181]}}, {"type": "Feature", "properties": {"wikidata": "Q94643515", "name": "Riserva locale Prati del Toro (B)", "status": "missing", "osm_id": null}, "geometry": {"type": "Point", "coordinates": [11.3117, 46.267]}}, {"type": "Feature", "properties": {"wikidata": "Q94521627", "name": "Riserva naturale locale Val di Gola", "status": "missing", "osm_id": null}, "geometry": {"type": "Point", "coordinates": [11.078, 46.033]}}, {"type": "Feature", "properties": {"wikidata": "Q94644041", "name": "Riserva naturale locale Palvico-Lora (B)", "status": "missing", "osm_id": null}, "geometry": {"type": "Point", "coordinates": [10.5462, 45.8173]}}, {"type": "Feature", "properties": {"wikidata": "Q94944909", "name": "Biotopo di Corredolo", "status": "done", "osm_id": "node/4900361406"}, "geometry": {"type": "Point", "coordinates": [10.66934, 46.28391]}}, {"type": "Feature", "properties": {"wikidata": "Q94643739", "name": "Riserva locale Brozin Maso Faoro", "status": "missing", "osm_id": null}, "geometry": {"type": "Point", "coordinates": [11.418, 46.2884]}}, {"type": "Feature", "properties": {"wikidata": "Q94643596", "name": "Riserva locale Maso Cela", "status": "missing", "osm_id": null}, "geometry": {"type": "Point", "coordinates": [11.41469, 46.29341]}}, {"type": "Feature", "properties": {"wikidata": "Q94944971", "name": "Riserva locale Alveo del Lago Presena", "status": "missing", "osm_id": null}, "geometry": {"type": "Point", "coordinates": [10.60015, 46.23743]}}, {"type": "Feature", "properties": {"wikidata": "Q94944623", "name": "Riserva locale Lago della Lama", "status": "missing", "osm_id": null}, "geometry": {"type": "Point", "coordinates": [10.69273, 46.41528]}}, {"type": "Feature", "properties": {"wikidata": "Q94644074", "name": "Riserva naturale locale Prada", "status": "missing", "osm_id": null}, "geometry": {"type": "Point", "coordinates": [11.0437, 46.1185]}}, {"type": "Feature", "properties": {"wikidata": "Q94537205", "name": "Riserva locale Monpiana 1", "status": "missing", "osm_id": null}, "geometry": {"type": "Point", "coordinates": [11.25205, 46.22791]}}, {"type": "Feature", "properties": {"wikidata": "Q94518823", "name": "Busa de la t\u00f2rba", "status": "missing", "osm_id": null}, "geometry": {"type": "Point", "coordinates": [11.2556, 46.1015]}}, {"type": "Feature", "properties": {"wikidata": "Q94535772", "name": "Riserva locale Cavallo 1", "status": "missing", "osm_id": null}, "geometry": {"type": "Point", "coordinates": [11.23856, 46.21918]}}, {"type": "Feature", "properties": {"wikidata": "Q94944846", "name": "Riserva locale Malga Nudole", "status": "missing", "osm_id": null}, "geometry": {"type": "Point", "coordinates": [10.51255, 46.03489]}}, {"type": "Feature", "properties": {"wikidata": "Q94643940", "name": "Riserva locale Pal\u00f9 di Mezzana", "status": "missing", "osm_id": null}, "geometry": {"type": "Point", "coordinates": [10.81372, 46.31761]}}, {"type": "Feature", "properties": {"wikidata": "Q94643492", "name": "Riserva locale Prati del Toro (A)", "status": "missing", "osm_id": null}, "geometry": {"type": "Point", "coordinates": [11.31403, 46.26671]}}, {"type": "Feature", "properties": {"wikidata": "Q94642840", "name": "Riserva naturale locale Fobbie - Laghetto della Polsa", "status": "missing", "osm_id": null}, "geometry": {"type": "Point", "coordinates": [10.93693, 45.78944]}}, {"type": "Feature", "properties": {"wikidata": "Q94759778", "name": "Riserva locale Saleri - Sette Selle", "status": "missing", "osm_id": null}, "geometry": {"type": "Point", "coordinates": [11.41341, 46.11929]}}, {"type": "Feature", "properties": {"wikidata": "Q94754163", "name": "Buse della pesa (A)", "status": "done", "osm_id": "way/441050465"}, "geometry": {"type": "Point", "coordinates": [11.41303, 46.13011]}}, {"type": "Feature", "properties": {"wikidata": "Q94642869", "name": "Riserva naturale locale Pasna", "status": "missing", "osm_id": null}, "geometry": {"type": "Point", "coordinates": [10.89787, 45.79848]}}, {"type": "Feature", "properties": {"wikidata": "Q94942548", "name": "Riserva locale Tognazza", "status": "missing", "osm_id": null}, "geometry": {"type": "Point", "coordinates": [11.79026, 46.27937]}}, {"type": "Feature", "properties": {"wikidata": "Q94644394", "name": "Riserva locale Val dei Pignari", "status": "missing", "osm_id": null}, "geometry": {"type": "Point", "coordinates": [11.4681, 46.3459]}}, {"type": "Feature", "properties": {"wikidata": "Q94543738", "name": "Riserva locale Molini", "status": "missing", "osm_id": null}, "geometry": {"type": "Point", "coordinates": [10.9008, 46.33721]}}, {"type": "Feature", "properties": {"wikidata": "Q94942600", "name": "Riserva locale Baita Segantini", "status": "missing", "osm_id": null}, "geometry": {"type": "Point", "coordinates": [11.80303, 46.29819]}}, {"type": "Feature", "properties": {"wikidata": "Q94942368", "name": "Riserva locale Buse dell'oro", "status": "missing", "osm_id": null}, "geometry": {"type": "Point", "coordinates": [11.73656, 46.28919]}}, {"type": "Feature", "properties": {"wikidata": "Q94753213", "name": "Riserva locale Lago Colo", "status": "missing", "osm_id": null}, "geometry": {"type": "Point", "coordinates": [11.41079, 46.08442]}}, {"type": "Feature", "properties": {"wikidata": "Q94942283", "name": "Riserva locale Laghi di Colbricon", "status": "missing", "osm_id": null}, "geometry": {"type": "Point", "coordinates": [11.7619, 46.2831]}}, {"type": "Feature", "properties": {"wikidata": "Q94750369", "name": "Riserva locale Pezzabosco", "status": "done", "osm_id": "way/437652301"}, "geometry": {"type": "Point", "coordinates": [11.63007, 46.10973]}}, {"type": "Feature", "properties": {"wikidata": "Q94643920", "name": "Riserva locale Mal\u00e9", "status": "done", "osm_id": "relation/7669025"}, "geometry": {"type": "Point", "coordinates": [10.9176, 46.35009]}}, {"type": "Feature", "properties": {"wikidata": "Q94643835", "name": "Riserva naturale locale Valle Scanderlotti", "status": "missing", "osm_id": null}, "geometry": {"type": "Point", "coordinates": [11.08648, 45.99082]}}, {"type": "Feature", "properties": {"wikidata": "Q94944769", "name": "Riserva locale Malga Campo di Sotto", "status": "missing", "osm_id": null}, "geometry": {"type": "Point", "coordinates": [10.50697, 46.04293]}}, {"type": "Feature", "properties": {"wikidata": "Q94643668", "name": "Riserva naturale locale Pal\u00f9 delle Maresse", "status": "missing", "osm_id": null}, "geometry": {"type": "Point", "coordinates": [10.55425, 45.93566]}}, {"type": "Feature", "properties": {"wikidata": "Q94751539", "name": "Riserva locale Pozze", "status": "missing", "osm_id": null}, "geometry": {"type": "Point", "coordinates": [11.3808, 46.06959]}}, {"type": "Feature", "properties": {"wikidata": "Q94944588", "name": "Riserva locale Lago di Bocche", "status": "missing", "osm_id": null}, "geometry": {"type": "Point", "coordinates": [11.7513, 46.3415]}}, {"type": "Feature", "properties": {"wikidata": "Q94644023", "name": "Riserva naturale locale Palvico-Lora (A)", "status": "missing", "osm_id": null}, "geometry": {"type": "Point", "coordinates": [10.5516, 45.821]}}, {"type": "Feature", "properties": {"wikidata": "Q94753006", "name": "Riserva locale Cinque valli (C)", "status": "missing", "osm_id": null}, "geometry": {"type": "Point", "coordinates": [11.36778, 46.05565]}}, {"type": "Feature", "properties": {"wikidata": "Q94643705", "name": "Riserva locale Brozin", "status": "missing", "osm_id": null}, "geometry": {"type": "Point", "coordinates": [11.4152, 46.2869]}}, {"type": "Feature", "properties": {"wikidata": "Q94643953", "name": "Riserva locale Ziano", "status": "missing", "osm_id": null}, "geometry": {"type": "Point", "coordinates": [11.5813, 46.2923]}}, {"type": "Feature", "properties": {"wikidata": "Q94696552", "name": "Palon dela Cavallara", "status": "done", "osm_id": "way/437652300"}, "geometry": {"type": "Point", "coordinates": [11.66167, 46.13536]}}, {"type": "Feature", "properties": {"wikidata": "Q94536461", "name": "Riserva locale Cavallo 2", "status": "missing", "osm_id": null}, "geometry": {"type": "Point", "coordinates": [11.24054, 46.22107]}}, {"type": "Feature", "properties": {"wikidata": "Q94644092", "name": "Riserva locale Roncosogno", "status": "missing", "osm_id": null}, "geometry": {"type": "Point", "coordinates": [11.529, 46.2828]}}, {"type": "Feature", "properties": {"wikidata": "Q94754202", "name": "Buse della pesa (B)", "status": "done", "osm_id": "way/441050466"}, "geometry": {"type": "Point", "coordinates": [11.4051, 46.12853]}}, {"type": "Feature", "properties": {"wikidata": "Q94644294", "name": "Riserva locale Palude", "status": "missing", "osm_id": null}, "geometry": {"type": "Point", "coordinates": [11.46541, 46.3514]}}, {"type": "Feature", "properties": {"wikidata": "Q94944568", "name": "Riserva locale Val de Castel", "status": "missing", "osm_id": null}, "geometry": {"type": "Point", "coordinates": [11.82051, 46.15294]}}, {"type": "Feature", "properties": {"wikidata": "Q94696577", "name": "Malga Tolv\u00e0", "status": "missing", "osm_id": null}, "geometry": {"type": "Point", "coordinates": [11.62703, 46.14721]}}, {"type": "Feature", "properties": {"wikidata": "Q94643763", "name": "Riserva locale Piano", "status": "missing", "osm_id": null}, "geometry": {"type": "Point", "coordinates": [10.83197, 46.3192]}}, {"type": "Feature", "properties": {"wikidata": "Q94761593", "name": "Roccolo del Sauch", "status": "done", "osm_id": "way/42690882"}, "geometry": {"type": "Point", "coordinates": [11.19218742, 46.214675962]}}, {"type": "Feature", "properties": {"wikidata": "Q94760189", "name": "Riserva locale Saleti", "status": "done", "osm_id": "way/437070983"}, "geometry": {"type": "Point", "coordinates": [11.54672, 46.04253]}}, {"type": "Feature", "properties": {"wikidata": "Q94696598", "name": "Laghetto di Restel", "status": "missing", "osm_id": null}, "geometry": {"type": "Point", "coordinates": [11.24435, 46.08873]}}, {"type": "Feature", "properties": {"wikidata": "Q94644056", "name": "Riserva naturale locale Darzo", "status": "missing", "osm_id": null}, "geometry": {"type": "Point", "coordinates": [10.55642, 45.84707]}}, {"type": "Feature", "properties": {"wikidata": "Q94643571", "name": "Riserva locale Fraul (B)", "status": "missing", "osm_id": null}, "geometry": {"type": "Point", "coordinates": [11.396, 46.2807]}}, {"type": "Feature", "properties": {"wikidata": "Q94520111", "name": "Riserva locale Bus Torba", "status": "missing", "osm_id": null}, "geometry": {"type": "Point", "coordinates": [11.48666, 46.34014]}}, {"type": "Feature", "properties": {"wikidata": "Q94644442", "name": "Riserva naturale locale Pal\u00f9 della Brega", "status": "missing", "osm_id": null}, "geometry": {"type": "Point", "coordinates": [11.49189, 46.36127]}}, {"type": "Feature", "properties": {"wikidata": "Q94643541", "name": "Riserva locale Fraul (A)", "status": "missing", "osm_id": null}, "geometry": {"type": "Point", "coordinates": [11.38642, 46.28599]}}, {"type": "Feature", "properties": {"wikidata": "Q94761169", "name": "Riserva locale Pal\u00f9 Marc'", "status": "missing", "osm_id": null}, "geometry": {"type": "Point", "coordinates": [11.23249, 46.10334]}}, {"type": "Feature", "properties": {"wikidata": "Q94944542", "name": "Riserva locale Masi di Imer", "status": "missing", "osm_id": null}, "geometry": {"type": "Point", "coordinates": [11.77432, 46.14332]}}, {"type": "Feature", "properties": {"wikidata": "Q94942574", "name": "Riserva locale Lago di Calaita", "status": "missing", "osm_id": null}, "geometry": {"type": "Point", "coordinates": [11.7934, 46.2033]}}, {"type": "Feature", "properties": {"wikidata": "Q107179210", "name": "capitello votivo", "status": "missing", "osm_id": null}, "geometry": {"type": "Point", "coordinates": [11.178715102, 46.532470021]}}, {"type": "Feature", "properties": {"wikidata": "Q108120240", "name": "cappella del cimitero", "status": "done", "osm_id": "way/983199667"}, "geometry": {"type": "Point", "coordinates": [10.977658688, 45.820964032]}}, {"type": "Feature", "properties": {"wikidata": "Q108810903", "name": "capitello votivo", "status": "done", "osm_id": "way/996226727"}, "geometry": {"type": "Point", "coordinates": [10.722929426, 46.087498572]}}, {"type": "Feature", "properties": {"wikidata": "Q108884747", "name": "capitello votivo", "status": "done", "osm_id": "way/439325009"}, "geometry": {"type": "Point", "coordinates": [10.728135462, 45.908030058]}}, {"type": "Feature", "properties": {"wikidata": "Q108908858", "name": "Casa Niccolini", "status": "done", "osm_id": "way/79435047"}, "geometry": {"type": "Point", "coordinates": [11.12202, 46.06783]}}, {"type": "Feature", "properties": {"wikidata": "Q108251543", "name": "cappella del cimitero", "status": "done", "osm_id": "way/983199661"}, "geometry": {"type": "Point", "coordinates": [11.123031615, 46.395417488]}}, {"type": "Feature", "properties": {"wikidata": "Q109299958", "name": "cappella del cimitero", "status": "done", "osm_id": "way/153386563"}, "geometry": {"type": "Point", "coordinates": [10.885103268, 46.334930175]}}, {"type": "Feature", "properties": {"wikidata": "Q108150801", "name": "cappella del cimitero", "status": "done", "osm_id": "way/983199665"}, "geometry": {"type": "Point", "coordinates": [10.956209851, 45.798811327]}}, {"type": "Feature", "properties": {"wikidata": "Q109382166", "name": "chiesetta ai morti alpini", "status": "done", "osm_id": "way/87793186"}, "geometry": {"type": "Point", "coordinates": [11.13968, 45.71012]}}, {"type": "Feature", "properties": {"wikidata": "Q108320162", "name": "Monumento ai caduti", "status": "missing", "osm_id": null}, "geometry": {"type": "Point", "coordinates": [11.324412868, 45.921534276]}}, {"type": "Feature", "properties": {"wikidata": "Q108430152", "name": "cappella del cimitero", "status": "done", "osm_id": "way/983199659"}, "geometry": {"type": "Point", "coordinates": [10.694435978, 46.000357725]}}, {"type": "Feature", "properties": {"wikidata": "Q108943553", "name": "cappella del cimitero", "status": "done", "osm_id": "way/996226720"}, "geometry": {"type": "Point", "coordinates": [10.649913934, 45.954559496]}}, {"type": "Feature", "properties": {"wikidata": "Q108107577", "name": "cappella del cimitero", "status": "done", "osm_id": "way/983199666"}, "geometry": {"type": "Point", "coordinates": [10.970118695, 45.83931672]}}, {"type": "Feature", "properties": {"wikidata": "Q108072315", "name": "cappella del cimitero", "status": "done", "osm_id": "way/972948199"}, "geometry": {"type": "Point", "coordinates": [10.739286336, 46.033369128]}}, {"type": "Feature", "properties": {"wikidata": "Q107741887", "name": "cappella del cimitero", "status": "done", "osm_id": "way/972689998"}, "geometry": {"type": "Point", "coordinates": [11.010119685, 46.452702384]}}, {"type": "Feature", "properties": {"wikidata": "Q107741730", "name": "cappella del cimitero", "status": "done", "osm_id": "way/972690000"}, "geometry": {"type": "Point", "coordinates": [11.018857477, 46.439920167]}}, {"type": "Feature", "properties": {"wikidata": "Q107760022", "name": "convento delle benedettine", "status": "missing", "osm_id": null}, "geometry": {"type": "Point", "coordinates": [11.890628, 46.78565]}}, {"type": "Feature", "properties": {"wikidata": "Q107751765", "name": "capitello votivo", "status": "done", "osm_id": "way/972689996"}, "geometry": {"type": "Point", "coordinates": [11.029886336, 46.434718426]}}, {"type": "Feature", "properties": {"wikidata": "Q107579942", "name": "Osteria del Corno", "status": "missing", "osm_id": null}, "geometry": {"type": "Point", "coordinates": [11.45, 46.6]}}, {"type": "Feature", "properties": {"wikidata": "Q107264870", "name": "ospedale di Vipiteno", "status": "done", "osm_id": "way/1108972120"}, "geometry": {"type": "Point", "coordinates": [11.42563, 46.89828]}}, {"type": "Feature", "properties": {"wikidata": "Q107264895", "name": "ospedale di San Candido", "status": "done", "osm_id": "way/216694015"}, "geometry": {"type": "Point", "coordinates": [12.28446, 46.73378]}}, {"type": "Feature", "properties": {"wikidata": "Q110287940", "name": "chiesetta alpina", "status": "done", "osm_id": "way/166746049"}, "geometry": {"type": "Point", "coordinates": [11.355877008, 46.042333624]}}, {"type": "Feature", "properties": {"wikidata": "Q110300127", "name": "Zona sportiva Maso Ronco", "status": "missing", "osm_id": null}, "geometry": {"type": "Point", "coordinates": [11.288101297, 46.446758059]}}, {"type": "Feature", "properties": {"wikidata": "Q110611731", "name": "Villa Balduini Tambosi", "status": "missing", "osm_id": null}, "geometry": {"type": "Point", "coordinates": [11.14012, 46.04357]}}, {"type": "Feature", "properties": {"wikidata": "Q110300122", "name": "Dorftreff Schenk", "status": "missing", "osm_id": null}, "geometry": {"type": "Point", "coordinates": [11.29661, 46.47755]}}, {"type": "Feature", "properties": {"wikidata": "Q110271744", "name": "cappella del cimitero", "status": "done", "osm_id": "way/1024886106"}, "geometry": {"type": "Point", "coordinates": [11.103451114, 46.078501103]}}, {"type": "Feature", "properties": {"wikidata": "Q110300390", "name": "Bar di via Stazione", "status": "missing", "osm_id": null}, "geometry": {"type": "Point", "coordinates": [11.268790294, 46.453116874]}}, {"type": "Feature", "properties": {"wikidata": "Q110300389", "name": "Poligono di San Michele", "status": "missing", "osm_id": null}, "geometry": {"type": "Point", "coordinates": [11.256594461, 46.456147243]}}, {"type": "Feature", "properties": {"wikidata": "Q110300394", "name": "Scuola musicale Leonhard von Call", "status": "missing", "osm_id": null}, "geometry": {"type": "Point", "coordinates": [11.261057506, 46.454754788]}}, {"type": "Feature", "properties": {"wikidata": "Q111330788", "name": "capitello votivo", "status": "done", "osm_id": "way/666988117"}, "geometry": {"type": "Point", "coordinates": [11.25120767, 46.114681425]}}, {"type": "Feature", "properties": {"wikidata": "Q110755284", "name": "lisiera", "status": "done", "osm_id": "way/207360814"}, "geometry": {"type": "Point", "coordinates": [11.84093048, 46.182138629]}}, {"type": "Feature", "properties": {"wikidata": "Q111395582", "name": "cappella militare", "status": "done", "osm_id": "way/153528451"}, "geometry": {"type": "Point", "coordinates": [11.36615, 46.10227]}}, {"type": "Feature", "properties": {"wikidata": "Q111038542", "name": "monumento ai caduti di Vattaro", "status": "done", "osm_id": "node/8678741742"}, "geometry": {"type": "Point", "coordinates": [11.22523, 45.99321]}}, {"type": "Feature", "properties": {"wikidata": "Q110613454", "name": "Santa Elisabetta", "status": "done", "osm_id": "node/7828967366"}, "geometry": {"type": "Point", "coordinates": [11.651, 46.728]}}, {"type": "Feature", "properties": {"wikidata": "Q110678262", "name": "capitello votivo", "status": "done", "osm_id": "way/1024886096"}, "geometry": {"type": "Point", "coordinates": [10.767293445, 46.314177757]}}, {"type": "Feature", "properties": {"wikidata": "Q112944632", "name": "Punto di Lettura di San Lorenzo Dorsino", "status": "missing", "osm_id": null}, "geometry": {"type": "Point", "coordinates": [10.9106329, 46.1195973]}}, {"type": "Feature", "properties": {"wikidata": "Q112944633", "name": "Punto di Lettura di Sporminore", "status": "missing", "osm_id": null}, "geometry": {"type": "Point", "coordinates": [11.030131, 46.237359]}}, {"type": "Feature", "properties": {"wikidata": "Q112944638", "name": "Punto di Lettura di Romeno", "status": "missing", "osm_id": null}, "geometry": {"type": "Point", "coordinates": [11.1209795, 46.3952381]}}, {"type": "Feature", "properties": {"wikidata": "Q112944629", "name": "Punto di Lettura di Ronzo-Chienis", "status": "missing", "osm_id": null}, "geometry": {"type": "Point", "coordinates": [10.9501118, 45.8909729]}}, {"type": "Feature", "properties": {"wikidata": "Q112944648", "name": "Punto di lettura di Javr\u00e9", "status": "missing", "osm_id": null}, "geometry": {"type": "Point", "coordinates": [10.7100697, 46.0672432]}}, {"type": "Feature", "properties": {"wikidata": "Q112944628", "name": "Punto di Lettura di Padergnone", "status": "missing", "osm_id": null}, "geometry": {"type": "Point", "coordinates": [10.9880123, 46.0616752]}}, {"type": "Feature", "properties": {"wikidata": "Q112944639", "name": "Punto Di Lettura Di Pomarolo", "status": "done", "osm_id": "way/82543826"}, "geometry": {"type": "Point", "coordinates": [11.043023, 45.9282542]}}, {"type": "Feature", "properties": {"wikidata": "Q112944642", "name": "Punto di prestito di Cadine", "status": "done", "osm_id": "node/7095449517"}, "geometry": {"type": "Point", "coordinates": [11.0629682, 46.0857223]}}, {"type": "Feature", "properties": {"wikidata": "Q112944636", "name": "Punto di Lettura di Vattaro", "status": "missing", "osm_id": null}, "geometry": {"type": "Point", "coordinates": [11.21976, 45.99372]}}, {"type": "Feature", "properties": {"wikidata": "Q113042894", "name": "Capitel de Pontet", "status": "done", "osm_id": "node/9936234361"}, "geometry": {"type": "Point", "coordinates": [11.774267029, 46.107367236]}}, {"type": "Feature", "properties": {"wikidata": "Q112944631", "name": "Punto di lettura di Rumo", "status": "missing", "osm_id": null}, "geometry": {"type": "Point", "coordinates": [11.0188593, 46.441409]}}, {"type": "Feature", "properties": {"wikidata": "Q112944646", "name": "Punto di lettura di Zambana", "status": "done", "osm_id": "node/4558690082"}, "geometry": {"type": "Point", "coordinates": [11.0973529, 46.1517608]}}, {"type": "Feature", "properties": {"wikidata": "Q112944641", "name": "Punto di Prestito di Romagnano", "status": "done", "osm_id": "node/7095449515"}, "geometry": {"type": "Point", "coordinates": [11.1059023, 46.0171818]}}, {"type": "Feature", "properties": {"wikidata": "Q112944643", "name": "Punto di lettura di Ton", "status": "missing", "osm_id": null}, "geometry": {"type": "Point", "coordinates": [11.0857957, 46.2658697]}}, {"type": "Feature", "properties": {"wikidata": "Q112944640", "name": "Punto Di Prestito Di Montevaccino", "status": "done", "osm_id": "node/7095449518"}, "geometry": {"type": "Point", "coordinates": [11.14485, 46.10794]}}, {"type": "Feature", "properties": {"wikidata": "Q112944645", "name": "Punto di lettura di Sarnonico", "status": "missing", "osm_id": null}, "geometry": {"type": "Point", "coordinates": [11.1414534, 46.4184219]}},