{"type": "FeatureCollection", "features": [{"type": "Feature", "properties": {"wikidata": "Q131605", "name": "Merano", "status": "done", "osm_id": "relation/47283"}, "geometry": {"type": "Point", "coordinates": [11.159419, 46.669555]}}, {"type": "Feature", "properties": {"wikidata": "Q380287", "name": "Egna", "status": "done", "osm_id": "relation/47080"}, "geometry": {"type": "Point", "coordinates": [11.27337, 46.31777]}}, {"type": "Feature", "properties": {"wikidata": "Q380334", "name": "Falzes", "status": "done", "osm_id": "relation/47326"}, "geometry": {"type": "Point", "coordinates": [11.884006, 46.81198]}}, {"type": "Feature", "properties": {"wikidata": "Q380419", "name": "Punta dei Tre Scarperi", "status": "done", "osm_id": "node/307303747"}, "geometry": {"type": "Point", "coordinates": [12.318055555, 46.668611111]}}, {"type": "Feature", "properties": {"wikidata": "Q380419", "name": "Punta dei Tre Scarperi", "status": "done", "osm_id": "node/307303747"}, "geometry": {"type": "Point", "coordinates": [12.321666666, 46.671111111]}}, {"type": "Feature", "properties": {"wikidata": "Q381499", "name": "Fortezza", "status": "done", "osm_id": "relation/47322"}, "geometry": {"type": "Point", "coordinates": [11.61245, 46.786847]}}, {"type": "Feature", "properties": {"wikidata": "Q381366", "name": "Fi\u00e8 allo Sciliar", "status": "done", "osm_id": "relation/47232"}, "geometry": {"type": "Point", "coordinates": [11.502776, 46.51777]}}, {"type": "Feature", "properties": {"wikidata": "Q179398", "name": "Valle Isarco", "status": "done", "osm_id": "way/370532975"}, "geometry": {"type": "Point", "coordinates": [11.6, 46.67]}}, {"type": "Feature", "properties": {"wikidata": "Q185541", "name": "Bressanone", "status": "done", "osm_id": "relation/47300"}, "geometry": {"type": "Point", "coordinates": [11.657851, 46.716549]}}, {"type": "Feature", "properties": {"wikidata": "Q182234", "name": "Castello di Scena", "status": "done", "osm_id": "way/59075540"}, "geometry": {"type": "Point", "coordinates": [11.187435, 46.691169]}}, {"type": "Feature", "properties": {"wikidata": "Q132009", "name": "MuseoPassiria", "status": "done", "osm_id": "way/243156372"}, "geometry": {"type": "Point", "coordinates": [11.238735, 46.801462]}}, {"type": "Feature", "properties": {"wikidata": "Q180378", "name": "Cima Libera", "status": "done", "osm_id": "node/256041703"}, "geometry": {"type": "Point", "coordinates": [11.189722222, 46.970555555]}}, {"type": "Feature", "properties": {"wikidata": "Q176790", "name": "Stadio Rienza", "status": "missing", "osm_id": null}, "geometry": {"type": "Point", "coordinates": [11.949601, 46.791115]}}, {"type": "Feature", "properties": {"wikidata": "Q182234", "name": "Castello di Scena", "status": "done", "osm_id": "way/59075540"}, "geometry": {"type": "Point", "coordinates": [11.18786, 46.69072]}}, {"type": "Feature", "properties": {"wikidata": "Q177760", "name": "funicolare Rasciesa", "status": "done", "osm_id": "relation/1257010"}, "geometry": {"type": "Point", "coordinates": [11.67223, 46.578017]}}, {"type": "Feature", "properties": {"wikidata": "Q184610", "name": "Cima Dieci", "status": "done", "osm_id": "node/3700242934"}, "geometry": {"type": "Point", "coordinates": [11.961111111, 46.622222222]}}, {"type": "Feature", "properties": {"wikidata": "Q504650", "name": "Valle di Casies", "status": "done", "osm_id": "relation/47318"}, "geometry": {"type": "Point", "coordinates": [12.22865, 46.812021]}}, {"type": "Feature", "properties": {"wikidata": "Q504684", "name": "Varna", "status": "done", "osm_id": "relation/47307"}, "geometry": {"type": "Point", "coordinates": [11.634569, 46.740386]}}, {"type": "Feature", "properties": {"wikidata": "Q865576", "name": "Croda dei Baranci", "status": "done", "osm_id": "node/2470944967"}, "geometry": {"type": "Point", "coordinates": [12.255277777, 46.681388888]}}, {"type": "Feature", "properties": {"wikidata": "Q872565", "name": "Hintereisspitzen", "status": "missing", "osm_id": null}, "geometry": {"type": "Point", "coordinates": [10.764444444, 46.822777777]}}, {"type": "Feature", "properties": {"wikidata": "Q871863", "name": "Cima del Lago Bianco", "status": "done", "osm_id": "node/256042855"}, "geometry": {"type": "Point", "coordinates": [10.717222222, 46.846666666]}}, {"type": "Feature", "properties": {"wikidata": "Q865809", "name": "rifugio Brigata Tridentina", "status": "done", "osm_id": "node/9917669519"}, "geometry": {"type": "Point", "coordinates": [12.2063, 47.08]}}, {"type": "Feature", "properties": {"wikidata": "Q983234", "name": "chiesa della Beata Vergine Maria", "status": "done", "osm_id": "way/92840549"}, "geometry": {"type": "Point", "coordinates": [11.332585, 46.504832]}}, {"type": "Feature", "properties": {"wikidata": "Q984447", "name": "Laghetti", "status": "done", "osm_id": "node/358941377"}, "geometry": {"type": "Point", "coordinates": [11.24, 46.27527778]}}, {"type": "Feature", "properties": {"wikidata": "Q954663", "name": "Missiano", "status": "done", "osm_id": "relation/5454146"}, "geometry": {"type": "Point", "coordinates": [11.25418, 46.485]}}, {"type": "Feature", "properties": {"wikidata": "Q971879", "name": "Castello di Coldrano", "status": "done", "osm_id": "node/535614001"}, "geometry": {"type": "Point", "coordinates": [10.829857, 46.624455]}}, {"type": "Feature", "properties": {"wikidata": "Q966737", "name": "Castel Foresta", "status": "done", "osm_id": "relation/3794968"}, "geometry": {"type": "Point", "coordinates": [11.119564, 46.67845]}}, {"type": "Feature", "properties": {"wikidata": "Q953113", "name": "Lago della Stua", "status": "done", "osm_id": "way/43083619"}, "geometry": {"type": "Point", "coordinates": [11.285, 46.974722222]}}, {"type": "Feature", "properties": {"wikidata": "Q960574", "name": "Castel F\u00fcrstenburg", "status": "done", "osm_id": "relation/8391858"}, "geometry": {"type": "Point", "coordinates": [10.525959, 46.707036]}}, {"type": "Feature", "properties": {"wikidata": "Q947740", "name": "aeroporto di Bolzano", "status": "done", "osm_id": "way/236411340"}, "geometry": {"type": "Point", "coordinates": [11.326388888, 46.460277777]}}, {"type": "Feature", "properties": {"wikidata": "Q984447", "name": "Laghetti", "status": "done", "osm_id": "node/358941377"}, "geometry": {"type": "Point", "coordinates": [11.24011, 46.27473]}}, {"type": "Feature", "properties": {"wikidata": "Q944748", "name": "Vinzentinum", "status": "done", "osm_id": "relation/3262727"}, "geometry": {"type": "Point", "coordinates": [11.653333, 46.7244444]}}, {"type": "Feature", "properties": {"wikidata": "Q1283349", "name": "rifugio Passo Ponte di Ghiaccio", "status": "done", "osm_id": "node/9917556577"}, "geometry": {"type": "Point", "coordinates": [11.73833, 46.94806]}}, {"type": "Feature", "properties": {"wikidata": "Q1298203", "name": "Castel Aichberg", "status": "missing", "osm_id": null}, "geometry": {"type": "Point", "coordinates": [11.2525, 46.460833]}}, {"type": "Feature", "properties": {"wikidata": "Q1297524", "name": "Val d'Ega", "status": "done", "osm_id": "way/1035317951"}, "geometry": {"type": "Point", "coordinates": [11.45, 46.45]}}, {"type": "Feature", "properties": {"wikidata": "Q1278091", "name": "Monticolo", "status": "done", "osm_id": "relation/5454147"}, "geometry": {"type": "Point", "coordinates": [11.27666667, 46.41777778]}}, {"type": "Feature", "properties": {"wikidata": "Q1285340", "name": "chiesa di Santa Cristina e Sant'Antonio Abate", "status": "done", "osm_id": "way/41975587"}, "geometry": {"type": "Point", "coordinates": [11.715369, 46.559041]}}, {"type": "Feature", "properties": {"wikidata": "Q1294963", "name": "Ghiacciaio Giogo Alto", "status": "done", "osm_id": "relation/1269348"}, "geometry": {"type": "Point", "coordinates": [10.806388888, 46.782222222]}}, {"type": "Feature", "properties": {"wikidata": "Q1273696", "name": "convento di Maria Steinach", "status": "done", "osm_id": "way/516869737"}, "geometry": {"type": "Point", "coordinates": [11.12042, 46.681408]}}, {"type": "Feature", "properties": {"wikidata": "Q1299677", "name": "Castel Annenberg", "status": "done", "osm_id": "way/59298774"}, "geometry": {"type": "Point", "coordinates": [10.839354, 46.630343]}}, {"type": "Feature", "properties": {"wikidata": "Q1297527", "name": "Ega", "status": "done", "osm_id": "way/119156262"}, "geometry": {"type": "Point", "coordinates": [11.388888888, 46.494722222]}}, {"type": "Feature", "properties": {"wikidata": "Q1301950", "name": "Verdins", "status": "done", "osm_id": "node/4427370293"}, "geometry": {"type": "Point", "coordinates": [11.20531, 46.71266]}}, {"type": "Feature", "properties": {"wikidata": "Q1298839", "name": "rifugio Rasciesa", "status": "done", "osm_id": "way/41875349"}, "geometry": {"type": "Point", "coordinates": [11.66216, 46.60045]}}, {"type": "Feature", "properties": {"wikidata": "Q1297524", "name": "Val d'Ega", "status": "done", "osm_id": "way/1035317951"}, "geometry": {"type": "Point", "coordinates": [11.448333333, 46.449166666]}}, {"type": "Feature", "properties": {"wikidata": "Q1279002", "name": "Picco di Fleres", "status": "missing", "osm_id": null}, "geometry": {"type": "Point", "coordinates": [11.3167, 46.9908]}}, {"type": "Feature", "properties": {"wikidata": "Q1301950", "name": "Verdins", "status": "done", "osm_id": "node/4427370293"}, "geometry": {"type": "Point", "coordinates": [11.20511055, 46.71238429]}}, {"type": "Feature", "properties": {"wikidata": "Q1280995", "name": "Museo mineralogico di Tiso", "status": "done", "osm_id": "node/302392417"}, "geometry": {"type": "Point", "coordinates": [11.620277777, 46.652777777]}}, {"type": "Feature", "properties": {"wikidata": "Q1290307", "name": "Rio Casies", "status": "missing", "osm_id": null}, "geometry": {"type": "Point", "coordinates": [12.203372222, 46.782080555]}}, {"type": "Feature", "properties": {"wikidata": "Q1344152", "name": "rifugio Alpe di Tires", "status": "done", "osm_id": "way/121839252"}, "geometry": {"type": "Point", "coordinates": [11.632778, 46.497185]}}, {"type": "Feature", "properties": {"wikidata": "Q1320927", "name": "Sparkasse Arena (Palaonda)", "status": "done", "osm_id": "way/34391417"}, "geometry": {"type": "Point", "coordinates": [11.329372, 46.471695]}}, {"type": "Feature", "properties": {"wikidata": "Q1334855", "name": "passo dello Stelvio", "status": "done", "osm_id": "way/801048959"}, "geometry": {"type": "Point", "coordinates": [10.454, 46.53]}}, {"type": "Feature", "properties": {"wikidata": "Q1340224", "name": "Riva di Tures", "status": "done", "osm_id": "node/650210029"}, "geometry": {"type": "Point", "coordinates": [12.06527778, 46.94972222]}}, {"type": "Feature", "properties": {"wikidata": "Q1326809", "name": "chiesa di Santa Maria Assunta", "status": "done", "osm_id": "way/208620134"}, "geometry": {"type": "Point", "coordinates": [11.502871, 46.517735]}}, {"type": "Feature", "properties": {"wikidata": "Q1346438", "name": "monte Scorluzzo", "status": "missing", "osm_id": null}, "geometry": {"type": "Point", "coordinates": [10.44276, 46.52365]}}, {"type": "Feature", "properties": {"wikidata": "Q1346438", "name": "monte Scorluzzo", "status": "missing", "osm_id": null}, "geometry": {"type": "Point", "coordinates": [10.442505, 46.521725]}}, {"type": "Feature", "properties": {"wikidata": "Q252074", "name": "lago di Caldaro", "status": "done", "osm_id": "relation/7633165"}, "geometry": {"type": "Point", "coordinates": [11.2625, 46.3775]}}, {"type": "Feature", "properties": {"wikidata": "Q252343", "name": "Appiano sulla Strada del Vino", "status": "done", "osm_id": "relation/47203"}, "geometry": {"type": "Point", "coordinates": [11.259049, 46.455333]}}, {"type": "Feature", "properties": {"wikidata": "Q253818", "name": "passo della Mendola", "status": "missing", "osm_id": null}, "geometry": {"type": "Point", "coordinates": [11.20722, 46.41694]}}, {"type": "Feature", "properties": {"wikidata": "Q245235", "name": "Dodiciville", "status": "missing", "osm_id": null}, "geometry": {"type": "Point", "coordinates": [11.360984, 46.500274]}}, {"type": "Feature", "properties": {"wikidata": "Q245224", "name": "Torre delle Dodici", "status": "done", "osm_id": "way/518028627"}, "geometry": {"type": "Point", "coordinates": [11.431293, 46.898842]}}, {"type": "Feature", "properties": {"wikidata": "Q189702", "name": "Castel San Zeno", "status": "done", "osm_id": "way/36504437"}, "geometry": {"type": "Point", "coordinates": [11.1716879, 46.6741989]}}, {"type": "Feature", "properties": {"wikidata": "Q187810", "name": "Valsura", "status": "done", "osm_id": "way/331423448"}, "geometry": {"type": "Point", "coordinates": [11.184121, 46.617298]}}, {"type": "Feature", "properties": {"wikidata": "Q419733", "name": "La Val", "status": "done", "osm_id": "relation/47289"}, "geometry": {"type": "Point", "coordinates": [11.924326, 46.657719]}}, {"type": "Feature", "properties": {"wikidata": "Q996394", "name": "ponte sull'Adige di Lagundo", "status": "missing", "osm_id": null}, "geometry": {"type": "Point", "coordinates": [11.115755, 46.680457]}}, {"type": "Feature", "properties": {"wikidata": "Q1012369", "name": "Castel d'Appiano", "status": "done", "osm_id": "relation/3581774"}, "geometry": {"type": "Point", "coordinates": [11.242216, 46.492654]}}, {"type": "Feature", "properties": {"wikidata": "Q993992", "name": "rifugio Roma alle Vedrette di Ries", "status": "done", "osm_id": "node/803390631"}, "geometry": {"type": "Point", "coordinates": [12.103254, 46.929048]}}, {"type": "Feature", "properties": {"wikidata": "Q1012618", "name": "Castel Cornedo", "status": "done", "osm_id": "way/149181516"}, "geometry": {"type": "Point", "coordinates": [11.397833, 46.489459]}}, {"type": "Feature", "properties": {"wikidata": "Q987465", "name": "Collalbo", "status": "done", "osm_id": "node/245922467"}, "geometry": {"type": "Point", "coordinates": [11.45933, 46.53988]}}, {"type": "Feature", "properties": {"wikidata": "Q1012037", "name": "Castel Greifenstein", "status": "done", "osm_id": "way/132758653"}, "geometry": {"type": "Point", "coordinates": [11.29188, 46.511736]}}, {"type": "Feature", "properties": {"wikidata": "Q1013283", "name": "Castel Casanova", "status": "done", "osm_id": "way/335205478"}, "geometry": {"type": "Point", "coordinates": [11.941152, 46.844908]}}, {"type": "Feature", "properties": {"wikidata": "Q1012220", "name": "Castel Hauenstein", "status": "done", "osm_id": "way/132627914"}, "geometry": {"type": "Point", "coordinates": [11.568577, 46.536259]}}, {"type": "Feature", "properties": {"wikidata": "Q987465", "name": "Collalbo", "status": "done", "osm_id": "node/245922467"}, "geometry": {"type": "Point", "coordinates": [11.45728, 46.54152]}}, {"type": "Feature", "properties": {"wikidata": "Q1013374", "name": "Castel Montani di Sopra", "status": "done", "osm_id": "way/101083263"}, "geometry": {"type": "Point", "coordinates": [10.827515, 46.601082]}}, {"type": "Feature", "properties": {"wikidata": "Q1013461", "name": "Castel Payrsberg", "status": "done", "osm_id": "way/974131357"}, "geometry": {"type": "Point", "coordinates": [11.198333, 46.535417]}}, {"type": "Feature", "properties": {"wikidata": "Q992211", "name": "Colle Isarco", "status": "done", "osm_id": "node/363791508"}, "geometry": {"type": "Point", "coordinates": [11.44247, 46.93813]}}, {"type": "Feature", "properties": {"wikidata": "Q987465", "name": "Collalbo", "status": "done", "osm_id": "node/245922467"}, "geometry": {"type": "Point", "coordinates": [11.45833333, 46.54166667]}}, {"type": "Feature", "properties": {"wikidata": "Q992211", "name": "Colle Isarco", "status": "done", "osm_id": "node/363791508"}, "geometry": {"type": "Point", "coordinates": [11.444825, 46.938301]}}, {"type": "Feature", "properties": {"wikidata": "Q1013630", "name": "Castel Reichenberg", "status": "done", "osm_id": "way/230754233"}, "geometry": {"type": "Point", "coordinates": [10.468114, 46.652741]}}, {"type": "Feature", "properties": {"wikidata": "Q992211", "name": "Colle Isarco", "status": "done", "osm_id": "node/363791508"}, "geometry": {"type": "Point", "coordinates": [11.44245, 46.93857]}}, {"type": "Feature", "properties": {"wikidata": "Q1011701", "name": "Castel Festenstein", "status": "done", "osm_id": "way/161411139"}, "geometry": {"type": "Point", "coordinates": [11.218769, 46.511994]}}, {"type": "Feature", "properties": {"wikidata": "Q1012850", "name": "castello di Laces", "status": "done", "osm_id": "node/5972377548"}, "geometry": {"type": "Point", "coordinates": [10.85979, 46.618103]}}, {"type": "Feature", "properties": {"wikidata": "Q420432", "name": "Lauregno", "status": "done", "osm_id": "relation/47206"}, "geometry": {"type": "Point", "coordinates": [11.062015, 46.454414]}}, {"type": "Feature", "properties": {"wikidata": "Q420306", "name": "Lasa", "status": "done", "osm_id": "relation/47258"}, "geometry": {"type": "Point", "coordinates": [10.700159, 46.616614]}}, {"type": "Feature", "properties": {"wikidata": "Q384885", "name": "Val Gardena", "status": "done", "osm_id": "way/338449531"}, "geometry": {"type": "Point", "coordinates": [11.704722, 46.56]}}, {"type": "Feature", "properties": {"wikidata": "Q385925", "name": "abbazia di Novacella", "status": "done", "osm_id": "way/215454733"}, "geometry": {"type": "Point", "coordinates": [11.64835, 46.74385]}}, {"type": "Feature", "properties": {"wikidata": "Q382153", "name": "Eores", "status": "done", "osm_id": "relation/10954851"}, "geometry": {"type": "Point", "coordinates": [11.69, 46.66805556]}}, {"type": "Feature", "properties": {"wikidata": "Q260459", "name": "Oltradige", "status": "missing", "osm_id": null}, "geometry": {"type": "Point", "coordinates": [11.252, 46.434]}}, {"type": "Feature", "properties": {"wikidata": "Q261187", "name": "Funes", "status": "done", "osm_id": "relation/47277"}, "geometry": {"type": "Point", "coordinates": [11.681375, 46.642863]}}, {"type": "Feature", "properties": {"wikidata": "Q212164", "name": "forte di Fortezza", "status": "done", "osm_id": "relation/5513878"}, "geometry": {"type": "Point", "coordinates": [11.630074, 46.777541]}}, {"type": "Feature", "properties": {"wikidata": "Q203151", "name": "Alpi della Zillertal", "status": "done", "osm_id": "relation/2127524"}, "geometry": {"type": "Point", "coordinates": [11.8, 47.0]}}, {"type": "Feature", "properties": {"wikidata": "Q212164", "name": "forte di Fortezza", "status": "done", "osm_id": "relation/5513878"}, "geometry": {"type": "Point", "coordinates": [11.609045, 46.792503]}}, {"type": "Feature", "properties": {"wikidata": "Q206533", "name": "Senale", "status": "done", "osm_id": "node/1319381098"}, "geometry": {"type": "Point", "coordinates": [11.10944444, 46.51138889]}}, {"type": "Feature", "properties": {"wikidata": "Q202457", "name": "Settequerce", "status": "done", "osm_id": "node/2324961416"}, "geometry": {"type": "Point", "coordinates": [11.27444444, 46.51027778]}}, {"type": "Feature", "properties": {"wikidata": "Q662117", "name": "Forcella del Picco", "status": "done", "osm_id": "node/278548978"}, "geometry": {"type": "Point", "coordinates": [12.216417, 47.085141]}}, {"type": "Feature", "properties": {"wikidata": "Q650695", "name": "Ortles", "status": "done", "osm_id": "way/552226226"}, "geometry": {"type": "Point", "coordinates": [10.545, 46.508888888]}}, {"type": "Feature", "properties": {"wikidata": "Q656334", "name": "Rio delle Foglie", "status": "done", "osm_id": "way/26569754"}, "geometry": {"type": "Point", "coordinates": [11.434193, 46.357828]}}, {"type": "Feature", "properties": {"wikidata": "Q662198", "name": "rifugio Bergamo al Principe", "status": "done", "osm_id": "way/152100331"}, "geometry": {"type": "Point", "coordinates": [11.62417, 46.48694]}}, {"type": "Feature", "properties": {"wikidata": "Q662863", "name": "Punta di Marz\u00e8l Est", "status": "done", "osm_id": "node/515635102"}, "geometry": {"type": "Point", "coordinates": [10.911169, 46.771264]}}, {"type": "Feature", "properties": {"wikidata": "Q504724", "name": "Villabassa", "status": "done", "osm_id": "relation/47313"}, "geometry": {"type": "Point", "coordinates": [12.169185, 46.737901388]}}, {"type": "Feature", "properties": {"wikidata": "Q504736", "name": "Villandro", "status": "done", "osm_id": "relation/47287"}, "geometry": {"type": "Point", "coordinates": [11.540101, 46.632934]}}, {"type": "Feature", "properties": {"wikidata": "Q244607", "name": "Laives", "status": "done", "osm_id": "relation/47187"}, "geometry": {"type": "Point", "coordinates": [11.334771, 46.422819]}}, {"type": "Feature", "properties": {"wikidata": "Q245219", "name": "Croda dei Toni", "status": "missing", "osm_id": null}, "geometry": {"type": "Point", "coordinates": [12.359444444, 46.619166666]}}, {"type": "Feature", "properties": {"wikidata": "Q245077", "name": "Longega", "status": "missing", "osm_id": null}, "geometry": {"type": "Point", "coordinates": [11.89176, 46.72203]}}, {"type": "Feature", "properties": {"wikidata": "Q536016", "name": "Solda", "status": "done", "osm_id": "node/908835164"}, "geometry": {"type": "Point", "coordinates": [10.583333, 46.53]}}, {"type": "Feature", "properties": {"wikidata": "Q542625", "name": "Rio Vallarsa", "status": "done", "osm_id": "way/637756924"}, "geometry": {"type": "Point", "coordinates": [11.31777778, 46.41322222]}}, {"type": "Feature", "properties": {"wikidata": "Q525626", "name": "Val Passiria", "status": "done", "osm_id": "way/338449041"}, "geometry": {"type": "Point", "coordinates": [11.216666666, 46.766666666]}}, {"type": "Feature", "properties": {"wikidata": "Q533215", "name": "Val di Plan", "status": "missing", "osm_id": null}, "geometry": {"type": "Point", "coordinates": [11.114722, 46.803611]}}, {"type": "Feature", "properties": {"wikidata": "Q540410", "name": "Biblioteca provinciale Dr. Friedrich Te\u00dfmann", "status": "done", "osm_id": "relation/3262437"}, "geometry": {"type": "Point", "coordinates": [11.342995, 46.503106]}}, {"type": "Feature", "properties": {"wikidata": "Q535463", "name": "Fenneregg", "status": "done", "osm_id": "node/1446391825"}, "geometry": {"type": "Point", "coordinates": [12.167834, 46.933252]}}, {"type": "Feature", "properties": {"wikidata": "Q541545", "name": "Trafoi", "status": "done", "osm_id": "node/276044964"}, "geometry": {"type": "Point", "coordinates": [10.50988, 46.5517]}}, {"type": "Feature", "properties": {"wikidata": "Q542272", "name": "Ladinia", "status": "missing", "osm_id": null}, "geometry": {"type": "Point", "coordinates": [12.031861111, 46.572166666]}}, {"type": "Feature", "properties": {"wikidata": "Q432997", "name": "Montagna sulla Strada del Vino", "status": "done", "osm_id": "relation/47089"}, "geometry": {"type": "Point", "coordinates": [11.30027, 46.33033]}}, {"type": "Feature", "properties": {"wikidata": "Q433066", "name": "Moso in Passiria", "status": "done", "osm_id": "relation/47315"}, "geometry": {"type": "Point", "coordinates": [11.167293, 46.831832]}}, {"type": "Feature", "properties": {"wikidata": "Q1269569", "name": "Monte San Vigilio", "status": "missing", "osm_id": null}, "geometry": {"type": "Point", "coordinates": [11.100277777, 46.647361111]}}, {"type": "Feature", "properties": {"wikidata": "Q1261451", "name": "Alpe di Siusi", "status": "done", "osm_id": "relation/3205367"}, "geometry": {"type": "Point", "coordinates": [11.64482, 46.54139]}}, {"type": "Feature", "properties": {"wikidata": "Q1267472", "name": "Cima Dura", "status": "done", "osm_id": "node/1629708646"}, "geometry": {"type": "Point", "coordinates": [12.029186, 46.961219]}}, {"type": "Feature", "properties": {"wikidata": "Q1267410", "name": "Valdurna", "status": "done", "osm_id": "node/309392776"}, "geometry": {"type": "Point", "coordinates": [11.43888889, 46.73888889]}}, {"type": "Feature", "properties": {"wikidata": "Q1261440", "name": "stadio Druso", "status": "done", "osm_id": "way/30342416"}, "geometry": {"type": "Point", "coordinates": [11.345385, 46.49234]}}, {"type": "Feature", "properties": {"wikidata": "Q1258728", "name": "Cornetto di Confine", "status": "done", "osm_id": "node/1659572456"}, "geometry": {"type": "Point", "coordinates": [12.3277, 46.7807]}}, {"type": "Feature", "properties": {"wikidata": "Q1261451", "name": "Alpe di Siusi", "status": "done", "osm_id": "relation/3205367"}, "geometry": {"type": "Point", "coordinates": [11.64472, 46.54111]}}, {"type": "Feature", "properties": {"wikidata": "Q1258258", "name": "rifugio Antonio Locatelli", "status": "done", "osm_id": "way/84679331"}, "geometry": {"type": "Point", "coordinates": [12.31055556, 46.63694444]}}, {"type": "Feature", "properties": {"wikidata": "Q1272363", "name": "rifugio Alfredo Serristori", "status": "done", "osm_id": "way/76382087"}, "geometry": {"type": "Point", "coordinates": [10.617675, 46.547269]}}, {"type": "Feature", "properties": {"wikidata": "Q1266550", "name": "cima del Vento", "status": "done", "osm_id": "node/1524772258"}, "geometry": {"type": "Point", "coordinates": [12.0175, 46.88972222]}}, {"type": "Feature", "properties": {"wikidata": "Q427850", "name": "Martello", "status": "done", "osm_id": "relation/47214"}, "geometry": {"type": "Point", "coordinates": [10.783017, 46.565595]}}, {"type": "Feature", "properties": {"wikidata": "Q427549", "name": "Cima Nera", "status": "done", "osm_id": "node/26863151"}, "geometry": {"type": "Point", "coordinates": [10.914722222, 46.773333333]}}, {"type": "Feature", "properties": {"wikidata": "Q193711", "name": "Rasun-Anterselva", "status": "done", "osm_id": "relation/47320"}, "geometry": {"type": "Point", "coordinates": [12.048894, 46.781894]}}, {"type": "Feature", "properties": {"wikidata": "Q191160", "name": "Centro-Piani-Rencio", "status": "done", "osm_id": "relation/10923498"}, "geometry": {"type": "Point", "coordinates": [11.36083333, 46.50027778]}}, {"type": "Feature", "properties": {"wikidata": "Q190348", "name": "Alpi Centro-orientali", "status": "missing", "osm_id": null}, "geometry": {"type": "Point", "coordinates": [13.0, 47.0]}}, {"type": "Feature", "properties": {"wikidata": "Q628931", "name": "Cima Undici", "status": "done", "osm_id": "node/2021368789"}, "geometry": {"type": "Point", "coordinates": [12.378055555, 46.636111111]}}, {"type": "Feature", "properties": {"wikidata": "Q613536", "name": "ferrovia Bolzano-Merano", "status": "done", "osm_id": "relation/404262"}, "geometry": {"type": "Point", "coordinates": [11.14861111, 46.67333333]}}, {"type": "Feature", "properties": {"wikidata": "Q596901", "name": "Isarco", "status": "done", "osm_id": "relation/2220892"}, "geometry": {"type": "Point", "coordinates": [11.314722222, 46.441111111]}}, {"type": "Feature", "properties": {"wikidata": "Q595382", "name": "passo Sella", "status": "missing", "osm_id": null}, "geometry": {"type": "Point", "coordinates": [11.757222222, 46.506666666]}}, {"type": "Feature", "properties": {"wikidata": "Q626693", "name": "Furchetta", "status": "done", "osm_id": "node/1663132042"}, "geometry": {"type": "Point", "coordinates": [11.7735, 46.612805555]}}, {"type": "Feature", "properties": {"wikidata": "Q601488", "name": "Rio Bria", "status": "missing", "osm_id": null}, "geometry": {"type": "Point", "coordinates": [11.44928, 46.49706]}}, {"type": "Feature", "properties": {"wikidata": "Q896149", "name": "Via dei Portici", "status": "missing", "osm_id": null}, "geometry": {"type": "Point", "coordinates": [11.354418, 46.499628]}}, {"type": "Feature", "properties": {"wikidata": "Q929297", "name": "rifugio Passo Santner", "status": "done", "osm_id": "way/152250682"}, "geometry": {"type": "Point", "coordinates": [11.619268, 46.4566]}}, {"type": "Feature", "properties": {"wikidata": "Q939107", "name": "Landro", "status": "done", "osm_id": "node/4191599204"}, "geometry": {"type": "Point", "coordinates": [12.2322, 46.641944]}}, {"type": "Feature", "properties": {"wikidata": "Q922451", "name": "Montarso", "status": "missing", "osm_id": null}, "geometry": {"type": "Point", "coordinates": [11.244379, 46.971702]}}, {"type": "Feature", "properties": {"wikidata": "Q928098", "name": "Castel Wolfsthurn", "status": "done", "osm_id": "way/124517636"}, "geometry": {"type": "Point", "coordinates": [11.349049, 46.893164]}}, {"type": "Feature", "properties": {"wikidata": "Q913928", "name": "Monte Pascolo", "status": "done", "osm_id": "node/1036490878"}, "geometry": {"type": "Point", "coordinates": [11.57139, 46.70663]}}, {"type": "Feature", "properties": {"wikidata": "Q910174", "name": "Rifugio Vallandro", "status": "done", "osm_id": "way/103700847"}, "geometry": {"type": "Point", "coordinates": [12.195849, 46.641901]}}, {"type": "Feature", "properties": {"wikidata": "Q921425", "name": "rifugio Bressanone", "status": "done", "osm_id": "node/9917556569"}, "geometry": {"type": "Point", "coordinates": [11.62055556, 46.91277778]}}, {"type": "Feature", "properties": {"wikidata": "Q909275", "name": "Terme di Brennero", "status": "missing", "osm_id": null}, "geometry": {"type": "Point", "coordinates": [11.46666667, 46.96666667]}}, {"type": "Feature", "properties": {"wikidata": "Q907911", "name": "Cima San Giacomo", "status": "done", "osm_id": "node/1246372343"}, "geometry": {"type": "Point", "coordinates": [11.491111111, 46.763055555]}}, {"type": "Feature", "properties": {"wikidata": "Q907962", "name": "Corno di Tramin", "status": "done", "osm_id": "node/307305653"}, "geometry": {"type": "Point", "coordinates": [11.496944444, 46.780555555]}}, {"type": "Feature", "properties": {"wikidata": "Q939879", "name": "Monte Nevoso", "status": "done", "osm_id": "node/1246395639"}, "geometry": {"type": "Point", "coordinates": [12.08444444, 46.90555556]}}, {"type": "Feature", "properties": {"wikidata": "Q935629", "name": "rifugio Citt\u00e0 di Milano", "status": "done", "osm_id": "way/152221842"}, "geometry": {"type": "Point", "coordinates": [10.597402, 46.490541]}}, {"type": "Feature", "properties": {"wikidata": "Q921416", "name": "duomo di Bressanone", "status": "done", "osm_id": "way/39365079"}, "geometry": {"type": "Point", "coordinates": [11.657763, 46.715888]}}, {"type": "Feature", "properties": {"wikidata": "Q913928", "name": "Monte Pascolo", "status": "done", "osm_id": "node/1036490878"}, "geometry": {"type": "Point", "coordinates": [11.571388888, 46.706666666]}}, {"type": "Feature", "properties": {"wikidata": "Q1466345", "name": "Pederoa", "status": "missing", "osm_id": null}, "geometry": {"type": "Point", "coordinates": [11.90861111, 46.65805556]}}, {"type": "Feature", "properties": {"wikidata": "Q1464092", "name": "Rio Solda", "status": "done", "osm_id": "way/1346917609"}, "geometry": {"type": "Point", "coordinates": [10.611666666, 46.633055555]}}, {"type": "Feature", "properties": {"wikidata": "Q1455800", "name": "chiesa del Sacro Cuore", "status": "done", "osm_id": "way/164347698"}, "geometry": {"type": "Point", "coordinates": [11.351055, 46.500874]}}, {"type": "Feature", "properties": {"wikidata": "Q1465741", "name": "Monte Rosso", "status": "done", "osm_id": "node/777351490"}, "geometry": {"type": "Point", "coordinates": [10.984166666, 46.723611111]}}, {"type": "Feature", "properties": {"wikidata": "Q1457380", "name": "cimitero civico di Bolzano", "status": "done", "osm_id": "way/32065545"}, "geometry": {"type": "Point", "coordinates": [11.33788, 46.475374]}}, {"type": "Feature", "properties": {"wikidata": "Q1454770", "name": "monte Sabiona", "status": "done", "osm_id": "node/2629119189"}, "geometry": {"type": "Point", "coordinates": [11.56752778, 46.64429722]}}, {"type": "Feature", "properties": {"wikidata": "Q1466345", "name": "Pederoa", "status": "missing", "osm_id": null}, "geometry": {"type": "Point", "coordinates": [11.9098, 46.65421]}}, {"type": "Feature", "properties": {"wikidata": "Q1468834", "name": "Val Venosta", "status": "done", "osm_id": "way/568532120"}, "geometry": {"type": "Point", "coordinates": [10.705, 46.615]}}, {"type": "Feature", "properties": {"wikidata": "Q1466844", "name": "Castel Sommo", "status": "done", "osm_id": "way/72352436"}, "geometry": {"type": "Point", "coordinates": [11.603411, 46.648667]}}, {"type": "Feature", "properties": {"wikidata": "Q259455", "name": "Naz-Sciaves", "status": "done", "osm_id": "relation/47314"}, "geometry": {"type": "Point", "coordinates": [11.665917, 46.769521]}}, {"type": "Feature", "properties": {"wikidata": "Q258810", "name": "Salorno sulla Strada del Vino", "status": "done", "osm_id": "relation/47045"}, "geometry": {"type": "Point", "coordinates": [11.2, 46.233333333]}}, {"type": "Feature", "properties": {"wikidata": "Q1013962", "name": "Castel Sch\u00f6neck", "status": "done", "osm_id": "way/43020006"}, "geometry": {"type": "Point", "coordinates": [11.847916, 46.820228]}}, {"type": "Feature", "properties": {"wikidata": "Q1014519", "name": "Castel Weinegg", "status": "done", "osm_id": "way/220179111"}, "geometry": {"type": "Point", "coordinates": [11.349853, 46.490382]}}, {"type": "Feature", "properties": {"wikidata": "Q1014477", "name": "Castel Vanga", "status": "done", "osm_id": "way/237520392"}, "geometry": {"type": "Point", "coordinates": [11.367411, 46.532764]}}, {"type": "Feature", "properties": {"wikidata": "Q1013806", "name": "Castel Salegg", "status": "done", "osm_id": "way/390862430"}, "geometry": {"type": "Point", "coordinates": [11.558347, 46.536185]}}, {"type": "Feature", "properties": {"wikidata": "Q1014956", "name": "Burgraviato", "status": "missing", "osm_id": null}, "geometry": {"type": "Point", "coordinates": [11.166666666, 46.666666666]}}, {"type": "Feature", "properties": {"wikidata": "Q1015396", "name": "Castel Lichtenberg", "status": "done", "osm_id": "node/559993374"}, "geometry": {"type": "Point", "coordinates": [10.564438, 46.633674]}}, {"type": "Feature", "properties": {"wikidata": "Q1015469", "name": "Castel Rafenstein", "status": "done", "osm_id": "way/196707808"}, "geometry": {"type": "Point", "coordinates": [11.35717, 46.526]}}, {"type": "Feature", "properties": {"wikidata": "Q1014100", "name": "Castel Stein", "status": "done", "osm_id": "way/226064329"}, "geometry": {"type": "Point", "coordinates": [11.46912, 46.522205]}}, {"type": "Feature", "properties": {"wikidata": "Q1014830", "name": "Burgusio", "status": "done", "osm_id": "node/94791043"}, "geometry": {"type": "Point", "coordinates": [10.52948, 46.71058]}}, {"type": "Feature", "properties": {"wikidata": "Q1020713", "name": "rifugio Pian di Cengia", "status": "done", "osm_id": "way/196574945"}, "geometry": {"type": "Point", "coordinates": [12.341372, 46.631557]}}, {"type": "Feature", "properties": {"wikidata": "Q1014223", "name": "Castel Taufers", "status": "done", "osm_id": "way/125147364"}, "geometry": {"type": "Point", "coordinates": [11.948351, 46.923289]}}, {"type": "Feature", "properties": {"wikidata": "Q1014341", "name": "Castel Montani di Sotto", "status": "done", "osm_id": "node/734956527"}, "geometry": {"type": "Point", "coordinates": [10.82759, 46.604761]}}, {"type": "Feature", "properties": {"wikidata": "Q1015552", "name": "Torre Druso", "status": "done", "osm_id": "way/1023098269"}, "geometry": {"type": "Point", "coordinates": [11.346621, 46.511443]}}, {"type": "Feature", "properties": {"wikidata": "Q1015286", "name": "Castel Fingeller", "status": "done", "osm_id": "node/2265919166"}, "geometry": {"type": "Point", "coordinates": [11.36291, 46.527262]}}, {"type": "Feature", "properties": {"wikidata": "Q1013644", "name": "Castel Reifenstein o Tasso", "status": "done", "osm_id": "way/579971438"}, "geometry": {"type": "Point", "coordinates": [11.444627, 46.878011]}}, {"type": "Feature", "properties": {"wikidata": "Q1015440", "name": "Castel Neuhaus", "status": "done", "osm_id": "way/51679253"}, "geometry": {"type": "Point", "coordinates": [11.2545323, 46.5251421]}}, {"type": "Feature", "properties": {"wikidata": "Q1014830", "name": "Burgusio", "status": "done", "osm_id": "node/94791043"}, "geometry": {"type": "Point", "coordinates": [10.52888889, 46.71055556]}}, {"type": "Feature", "properties": {"wikidata": "Q1014132", "name": "castello di Stetteneck", "status": "done", "osm_id": "node/5955517207"}, "geometry": {"type": "Point", "coordinates": [11.68944444, 46.57916667]}}, {"type": "Feature", "properties": {"wikidata": "Q419942", "name": "Lagundo", "status": "done", "osm_id": "relation/47284"}, "geometry": {"type": "Point", "coordinates": [11.123069, 46.682519]}}, {"type": "Feature", "properties": {"wikidata": "Q419816", "name": "Laces", "status": "done", "osm_id": "relation/47262"}, "geometry": {"type": "Point", "coordinates": [10.859539, 46.617344]}}, {"type": "Feature", "properties": {"wikidata": "Q892741", "name": "Bonner H\u00fctte", "status": "done", "osm_id": "node/2449738726"}, "geometry": {"type": "Point", "coordinates": [12.274743, 46.778426]}}, {"type": "Feature", "properties": {"wikidata": "Q886156", "name": "Prato all'Isarco", "status": "done", "osm_id": "node/1745247051"}, "geometry": {"type": "Point", "coordinates": [11.4475, 46.49555556]}}, {"type": "Feature", "properties": {"wikidata": "Q873287", "name": "Gran Vedretta", "status": "done", "osm_id": "node/256041797"}, "geometry": {"type": "Point", "coordinates": [11.717777777, 46.977777777]}}, {"type": "Feature", "properties": {"wikidata": "Q873204", "name": "Sasso Lungo di Collalto", "status": "done", "osm_id": "node/1446392611"}, "geometry": {"type": "Point", "coordinates": [12.166666666, 46.939444444]}}, {"type": "Feature", "properties": {"wikidata": "Q874530", "name": "Monte Cantone", "status": "missing", "osm_id": null}, "geometry": {"type": "Point", "coordinates": [10.624166666, 46.864444444]}}, {"type": "Feature", "properties": {"wikidata": "Q894651", "name": "Giardini di Castel Trauttmansdorff", "status": "done", "osm_id": "way/26665728"}, "geometry": {"type": "Point", "coordinates": [11.185, 46.66]}}, {"type": "Feature", "properties": {"wikidata": "Q877334", "name": "passo del Rombo", "status": "missing", "osm_id": null}, "geometry": {"type": "Point", "coordinates": [11.096667, 46.905278]}}, {"type": "Feature", "properties": {"wikidata": "Q877768", "name": "Punta Vallelunga", "status": "missing", "osm_id": null}, "geometry": {"type": "Point", "coordinates": [10.745833333, 46.804722222]}}, {"type": "Feature", "properties": {"wikidata": "Q894934", "name": "Capro", "status": "done", "osm_id": "node/256057446"}, "geometry": {"type": "Point", "coordinates": [11.198055555, 46.930833333]}}, {"type": "Feature", "properties": {"wikidata": "Q666965", "name": "Catena Sesvenna-Tavr\u00fc", "status": "done", "osm_id": "relation/2131534"}, "geometry": {"type": "Point", "coordinates": [10.402778, 46.705833]}}, {"type": "Feature", "properties": {"wikidata": "Q668470", "name": "Cima Altissima", "status": "done", "osm_id": "node/256041842"}, "geometry": {"type": "Point", "coordinates": [11.022203, 46.765547]}}, {"type": "Feature", "properties": {"wikidata": "Q671171", "name": "Cima del Prete", "status": "missing", "osm_id": null}, "geometry": {"type": "Point", "coordinates": [11.164444444, 46.965833333]}}, {"type": "Feature", "properties": {"wikidata": "Q668584", "name": "Gruppo del Venediger", "status": "done", "osm_id": "relation/2129053"}, "geometry": {"type": "Point", "coordinates": [12.305, 47.0922]}}, {"type": "Feature", "properties": {"wikidata": "Q668394", "name": "Monte Collalto", "status": "done", "osm_id": "node/1653401529"}, "geometry": {"type": "Point", "coordinates": [12.141666666, 46.9125]}}, {"type": "Feature", "properties": {"wikidata": "Q668425", "name": "Tribulaun", "status": "missing", "osm_id": null}, "geometry": {"type": "Point", "coordinates": [11.333333333, 46.983333333]}}, {"type": "Feature", "properties": {"wikidata": "Q668339", "name": "passo di Vizze", "status": "done", "osm_id": "node/475714086"}, "geometry": {"type": "Point", "coordinates": [11.660277777, 46.995]}}, {"type": "Feature", "properties": {"wikidata": "Q420006", "name": "Laion", "status": "done", "osm_id": "relation/47275"}, "geometry": {"type": "Point", "coordinates": [11.564263, 46.609229]}}, {"type": "Feature", "properties": {"wikidata": "Q420235", "name": "Lana", "status": "done", "osm_id": "relation/47268"}, "geometry": {"type": "Point", "coordinates": [11.144859, 46.616019]}}, {"type": "Feature", "properties": {"wikidata": "Q257965", "name": "Val Monastero", "status": "done", "osm_id": "way/568532121"}, "geometry": {"type": "Point", "coordinates": [10.39009, 46.60566]}}, {"type": "Feature", "properties": {"wikidata": "Q257965", "name": "Val Monastero", "status": "done", "osm_id": "way/568532121"}, "geometry": {"type": "Point", "coordinates": [10.42, 46.6]}}, {"type": "Feature", "properties": {"wikidata": "Q257696", "name": "Cima Garibaldi", "status": "done", "osm_id": "node/3452775200"}, "geometry": {"type": "Point", "coordinates": [10.452166666, 46.531888888]}}, {"type": "Feature", "properties": {"wikidata": "Q256765", "name": "Brunico", "status": "done", "osm_id": "relation/47317"}, "geometry": {"type": "Point", "coordinates": [11.935512, 46.796319]}}, {"type": "Feature", "properties": {"wikidata": "Q644159", "name": "Val Badia", "status": "done", "osm_id": "way/338453012"}, "geometry": {"type": "Point", "coordinates": [11.89917, 46.68361]}}, {"type": "Feature", "properties": {"wikidata": "Q644159", "name": "Val Badia", "status": "done", "osm_id": "way/338453012"}, "geometry": {"type": "Point", "coordinates": [11.9, 46.683333333]}}, {"type": "Feature", "properties": {"wikidata": "Q638086", "name": "Punta di Valle", "status": "done", "osm_id": "node/333900868"}, "geometry": {"type": "Point", "coordinates": [11.979597, 47.050046]}}, {"type": "Feature", "properties": {"wikidata": "Q637697", "name": "Sasso Nero", "status": "done", "osm_id": "node/333900401"}, "geometry": {"type": "Point", "coordinates": [11.873903, 47.010017]}}, {"type": "Feature", "properties": {"wikidata": "Q638380", "name": "Siusi allo Sciliar", "status": "done", "osm_id": "node/1760690313"}, "geometry": {"type": "Point", "coordinates": [11.5622, 46.5444]}}, {"type": "Feature", "properties": {"wikidata": "Q632249", "name": "castel Wolkenstein", "status": "done", "osm_id": "node/4252544005"}, "geometry": {"type": "Point", "coordinates": [11.769984, 46.564157]}}, {"type": "Feature", "properties": {"wikidata": "Q632638", "name": "archeoParc val Senales", "status": "missing", "osm_id": null}, "geometry": {"type": "Point", "coordinates": [10.856532, 46.724285]}}, {"type": "Feature", "properties": {"wikidata": "Q632252", "name": "Vetta d'Italia", "status": "done", "osm_id": "node/1446401066"}, "geometry": {"type": "Point", "coordinates": [12.180555555, 47.091111111]}}, {"type": "Feature", "properties": {"wikidata": "Q393254", "name": "Cima dell'Accla", "status": "done", "osm_id": "node/256057437"}, "geometry": {"type": "Point", "coordinates": [11.244444444, 46.965833333]}}, {"type": "Feature", "properties": {"wikidata": "Q402903", "name": "Valle Aurina", "status": "done", "osm_id": "relation/47338"}, "geometry": {"type": "Point", "coordinates": [11.981242, 46.996009]}}, {"type": "Feature", "properties": {"wikidata": "Q402635", "name": "Aurino", "status": "done", "osm_id": "relation/2220890"}, "geometry": {"type": "Point", "coordinates": [11.9226, 46.793]}}, {"type": "Feature", "properties": {"wikidata": "Q419157", "name": "Gais", "status": "done", "osm_id": "relation/47331"}, "geometry": {"type": "Point", "coordinates": [11.947484, 46.833157]}}, {"type": "Feature", "properties": {"wikidata": "Q427187", "name": "Malles Venosta", "status": "done", "osm_id": "relation/47302"}, "geometry": {"type": "Point", "coordinates": [10.546549, 46.687919]}}, {"type": "Feature", "properties": {"wikidata": "Q420734", "name": "Magr\u00e8 sulla Strada del Vino", "status": "done", "osm_id": "relation/47072"}, "geometry": {"type": "Point", "coordinates": [11.21068, 46.28791]}}, {"type": "Feature", "properties": {"wikidata": "Q427475", "name": "Perca", "status": "done", "osm_id": "relation/47328"}, "geometry": {"type": "Point", "coordinates": [11.982383, 46.794307]}}, {"type": "Feature", "properties": {"wikidata": "Q427354", "name": "Marlengo", "status": "done", "osm_id": "relation/47291"}, "geometry": {"type": "Point", "coordinates": [11.140534, 46.655632]}}, {"type": "Feature", "properties": {"wikidata": "Q544968", "name": "Punta di Finale", "status": "done", "osm_id": "node/256041694"}, "geometry": {"type": "Point", "coordinates": [10.831666666, 46.780277777]}}, {"type": "Feature", "properties": {"wikidata": "Q544318", "name": "Talvera", "status": "done", "osm_id": "relation/2220897"}, "geometry": {"type": "Point", "coordinates": [11.34861111, 46.49277778]}}, {"type": "Feature", "properties": {"wikidata": "Q568838", "name": "Punta Cervina", "status": "done", "osm_id": "node/7007010308"}, "geometry": {"type": "Point", "coordinates": [11.27638889, 46.73694444]}}, {"type": "Feature", "properties": {"wikidata": "Q582974", "name": "Val di Mazia", "status": "done", "osm_id": "way/822142590"}, "geometry": {"type": "Point", "coordinates": [10.661111111, 46.718888888]}}, {"type": "Feature", "properties": {"wikidata": "Q576783", "name": "Arena Alto Adige", "status": "missing", "osm_id": null}, "geometry": {"type": "Point", "coordinates": [12.1525, 46.886]}}, {"type": "Feature", "properties": {"wikidata": "Q572562", "name": "lago di Anterselva", "status": "done", "osm_id": "relation/14599988"}, "geometry": {"type": "Point", "coordinates": [12.166111111, 46.885833333]}}, {"type": "Feature", "properties": {"wikidata": "Q569893", "name": "castello di Neumelans", "status": "done", "osm_id": "way/247742973"}, "geometry": {"type": "Point", "coordinates": [11.95248, 46.916985]}}, {"type": "Feature", "properties": {"wikidata": "Q569896", "name": "castel Paschbach", "status": "missing", "osm_id": null}, "geometry": {"type": "Point", "coordinates": [11.252573, 46.460559]}}, {"type": "Feature", "properties": {"wikidata": "Q549129", "name": "collegiata di San Candido", "status": "done", "osm_id": "way/216694096"}, "geometry": {"type": "Point", "coordinates": [12.282674, 46.732909]}}, {"type": "Feature", "properties": {"wikidata": "Q1453948", "name": "Mezzaselva", "status": "done", "osm_id": "node/509767565"}, "geometry": {"type": "Point", "coordinates": [11.57354, 46.80699]}}, {"type": "Feature", "properties": {"wikidata": "Q1442737", "name": "Frangarto", "status": "done", "osm_id": "relation/5454143"}, "geometry": {"type": "Point", "coordinates": [11.29609, 46.47818]}}, {"type": "Feature", "properties": {"wikidata": "Q1454190", "name": "Maranza", "status": "done", "osm_id": "node/301551501"}, "geometry": {"type": "Point", "coordinates": [11.6635, 46.8148]}}, {"type": "Feature", "properties": {"wikidata": "Q1450307", "name": "Convento dei Francescani", "status": "done", "osm_id": "relation/2448650"}, "geometry": {"type": "Point", "coordinates": [11.353812, 46.501014]}}, {"type": "Feature", "properties": {"wikidata": "Q1439436", "name": "museo dei fossili di Meltina", "status": "done", "osm_id": "way/374539939"}, "geometry": {"type": "Point", "coordinates": [11.254815, 46.586807]}}, {"type": "Feature", "properties": {"wikidata": "Q1453948", "name": "Mezzaselva", "status": "done", "osm_id": "node/509767565"}, "geometry": {"type": "Point", "coordinates": [11.5738, 46.807]}}, {"type": "Feature", "properties": {"wikidata": "Q1442737", "name": "Frangarto", "status": "done", "osm_id": "relation/5454143"}, "geometry": {"type": "Point", "coordinates": [11.29611111, 46.47805556]}}, {"type": "Feature", "properties": {"wikidata": "Q1450232", "name": "Liceo dei Francescani di Bolzano", "status": "done", "osm_id": "way/165455382"}, "geometry": {"type": "Point", "coordinates": [11.354793, 46.501168]}}, {"type": "Feature", "properties": {"wikidata": "Q1453061", "name": "Val Mezd\u00ec", "status": "done", "osm_id": "way/468507136"}, "geometry": {"type": "Point", "coordinates": [11.831666666, 46.526111111]}}, {"type": "Feature", "properties": {"wikidata": "Q1439436", "name": "museo dei fossili di Meltina", "status": "done", "osm_id": "way/374539939"}, "geometry": {"type": "Point", "coordinates": [11.25416667, 46.58722222]}}, {"type": "Feature", "properties": {"wikidata": "Q1454190", "name": "Maranza", "status": "done", "osm_id": "node/301551501"}, "geometry": {"type": "Point", "coordinates": [11.65971, 46.8147]}}, {"type": "Feature", "properties": {"wikidata": "Q1451820", "name": "Museo delle Donne", "status": "done", "osm_id": "node/2755800654"}, "geometry": {"type": "Point", "coordinates": [11.163633, 46.67147]}}, {"type": "Feature", "properties": {"wikidata": "Q525419", "name": "Monte Cavallaccio", "status": "done", "osm_id": "node/294126023"}, "geometry": {"type": "Point", "coordinates": [10.492222222, 46.615277777]}}, {"type": "Feature", "properties": {"wikidata": "Q524592", "name": "giunta provinciale della provincia di Bolzano", "status": "missing", "osm_id": null}, "geometry": {"type": "Point", "coordinates": [11.357707, 46.49779]}}, {"type": "Feature", "properties": {"wikidata": "Q519474", "name": "San Cassiano", "status": "done", "osm_id": "node/223597157"}, "geometry": {"type": "Point", "coordinates": [11.93606, 46.57007]}}, {"type": "Feature", "properties": {"wikidata": "Q520612", "name": "Parco naturale dello Sciliar-Catinaccio", "status": "done", "osm_id": "relation/15595792"}, "geometry": {"type": "Point", "coordinates": [11.575556, 46.514976]}}, {"type": "Feature", "properties": {"wikidata": "Q525274", "name": "Grande M\u00e8sule", "status": "missing", "osm_id": null}, "geometry": {"type": "Point", "coordinates": [11.78178, 46.992455]}}, {"type": "Feature", "properties": {"wikidata": "Q419357", "name": "Glorenza", "status": "done", "osm_id": "relation/47290"}, "geometry": {"type": "Point", "coordinates": [10.553913, 46.671492]}}, {"type": "Feature", "properties": {"wikidata": "Q419249", "name": "Gargazzone", "status": "done", "osm_id": "relation/47260"}, "geometry": {"type": "Point", "coordinates": [11.20273, 46.584781]}}, {"type": "Feature", "properties": {"wikidata": "Q1236314", "name": "Dolomiti Superski", "status": "done", "osm_id": "relation/13798382"}, "geometry": {"type": "Point", "coordinates": [11.8266541, 46.5176895]}}, {"type": "Feature", "properties": {"wikidata": "Q1227395", "name": "Monastero di Sabiona", "status": "done", "osm_id": "way/41806538"}, "geometry": {"type": "Point", "coordinates": [11.56701, 46.64385]}}, {"type": "Feature", "properties": {"wikidata": "Q1206172", "name": "chiesa dell'Ordine Teutonico", "status": "done", "osm_id": "way/127436051"}, "geometry": {"type": "Point", "coordinates": [11.35669, 46.502474]}}, {"type": "Feature", "properties": {"wikidata": "Q1221533", "name": "Teodone", "status": "missing", "osm_id": null}, "geometry": {"type": "Point", "coordinates": [11.94833333, 46.80583333]}}, {"type": "Feature", "properties": {"wikidata": "Q1236280", "name": "Alta via n. 1", "status": "done", "osm_id": "relation/177743"}, "geometry": {"type": "Point", "coordinates": [12.084, 46.69772222]}}, {"type": "Feature", "properties": {"wikidata": "Q1231433", "name": "Libera Universit\u00e0 di Bolzano", "status": "done", "osm_id": "way/181598788"}, "geometry": {"type": "Point", "coordinates": [11.349438888, 46.497925]}}, {"type": "Feature", "properties": {"wikidata": "Q228166", "name": "Rifugio Nino Corsi", "status": "done", "osm_id": "way/122266665"}, "geometry": {"type": "Point", "coordinates": [10.679253, 46.481481]}}, {"type": "Feature", "properties": {"wikidata": "Q220138", "name": "Valle di Anterselva", "status": "missing", "osm_id": null}, "geometry": {"type": "Point", "coordinates": [12.094746, 46.846808]}}, {"type": "Feature", "properties": {"wikidata": "Q222860", "name": "Passo di Resia", "status": "done", "osm_id": "node/1251838509"}, "geometry": {"type": "Point", "coordinates": [10.510124, 46.83435]}}, {"type": "Feature", "properties": {"wikidata": "Q239953", "name": "Funicolare del Virgolo", "status": "done", "osm_id": "way/1351258762"}, "geometry": {"type": "Point", "coordinates": [11.35472222, 46.49194444]}}, {"type": "Feature", "properties": {"wikidata": "Q220138", "name": "Valle di Anterselva", "status": "missing", "osm_id": null}, "geometry": {"type": "Point", "coordinates": [12.0875, 46.848333333]}}, {"type": "Feature", "properties": {"wikidata": "Q241700", "name": "Don Bosco", "status": "done", "osm_id": "relation/10923496"}, "geometry": {"type": "Point", "coordinates": [11.325, 46.48888889]}}, {"type": "Feature", "properties": {"wikidata": "Q212946", "name": "passo del Brennero", "status": "missing", "osm_id": null}, "geometry": {"type": "Point", "coordinates": [11.50653, 47.00707]}}, {"type": "Feature", "properties": {"wikidata": "Q227316", "name": "rifugio Zsigmondy-Comici", "status": "done", "osm_id": "way/196574882"}, "geometry": {"type": "Point", "coordinates": [12.358312, 46.628439]}}, {"type": "Feature", "properties": {"wikidata": "Q664605", "name": "Castello", "status": "done", "osm_id": "way/112513247"}, "geometry": {"type": "Point", "coordinates": [11.939408, 46.794404]}}, {"type": "Feature", "properties": {"wikidata": "Q662876", "name": "Cima di Quaira", "status": "done", "osm_id": "node/256041857"}, "geometry": {"type": "Point", "coordinates": [10.97474, 46.77257]}}, {"type": "Feature", "properties": {"wikidata": "Q664190", "name": "Cima di Malavalle", "status": "missing", "osm_id": null}, "geometry": {"type": "Point", "coordinates": [11.164444444, 46.956388888]}}, {"type": "Feature", "properties": {"wikidata": "Q663956", "name": "Pizzo Rosso", "status": "done", "osm_id": "node/1446396188"}, "geometry": {"type": "Point", "coordinates": [12.204444444, 47.027222222]}}, {"type": "Feature", "properties": {"wikidata": "Q663046", "name": "Cima di Campo", "status": "done", "osm_id": "node/8866847174"}, "geometry": {"type": "Point", "coordinates": [11.809987, 46.990135]}}, {"type": "Feature", "properties": {"wikidata": "Q663943", "name": "Picco dei Tre Signori", "status": "done", "osm_id": "node/307311105"}, "geometry": {"type": "Point", "coordinates": [12.24031, 47.06878]}}, {"type": "Feature", "properties": {"wikidata": "Q663434", "name": "Lutago", "status": "done", "osm_id": "node/2635773433"}, "geometry": {"type": "Point", "coordinates": [11.9215, 46.9512]}}, {"type": "Feature", "properties": {"wikidata": "Q662994", "name": "Punta Bianca", "status": "done", "osm_id": "node/12584991420"}, "geometry": {"type": "Point", "coordinates": [11.74738, 46.9676]}}, {"type": "Feature", "properties": {"wikidata": "Q1423483", "name": "Funicolare del Guncina", "status": "done", "osm_id": "way/677943426"}, "geometry": {"type": "Point", "coordinates": [11.33583333, 46.50861111]}}, {"type": "Feature", "properties": {"wikidata": "Q1411916", "name": "rifugio Sennes", "status": "done", "osm_id": "way/103325526"}, "geometry": {"type": "Point", "coordinates": [12.059458, 46.653627]}}, {"type": "Feature", "properties": {"wikidata": "Q1439138", "name": "Carezza", "status": "done", "osm_id": "node/333695808"}, "geometry": {"type": "Point", "coordinates": [11.589546, 46.411352]}}, {"type": "Feature", "properties": {"wikidata": "Q1418086", "name": "Rio Braies", "status": "done", "osm_id": "way/1347846555"}, "geometry": {"type": "Point", "coordinates": [12.131388888, 46.744444444]}}, {"type": "Feature", "properties": {"wikidata": "Q1416530", "name": "lago di Carezza", "status": "done", "osm_id": "relation/18054420"}, "geometry": {"type": "Point", "coordinates": [11.575, 46.409166666]}}, {"type": "Feature", "properties": {"wikidata": "Q1418198", "name": "convento dei Cappuccini di Merano", "status": "missing", "osm_id": null}, "geometry": {"type": "Point", "coordinates": [11.158934695, 46.673791078]}}, {"type": "Feature", "properties": {"wikidata": "Q1433904", "name": "Aeroporto di Dobbiaco", "status": "done", "osm_id": "way/183361227"}, "geometry": {"type": "Point", "coordinates": [12.231516666, 46.726983333]}}, {"type": "Feature", "properties": {"wikidata": "Q1428401", "name": "Corno Bianco", "status": "done", "osm_id": "node/1379277879"}, "geometry": {"type": "Point", "coordinates": [11.397222222, 46.802777777]}}, {"type": "Feature", "properties": {"wikidata": "Q1439138", "name": "Carezza", "status": "done", "osm_id": "node/333695808"}, "geometry": {"type": "Point", "coordinates": [11.58817, 46.41147]}}, {"type": "Feature", "properties": {"wikidata": "Q1413353", "name": "chiesa di San Giuseppe", "status": "done", "osm_id": "way/1466211316"}, "geometry": {"type": "Point", "coordinates": [12.366623, 46.68961]}}, {"type": "Feature", "properties": {"wikidata": "Q1420331", "name": "Val Fiscalina", "status": "done", "osm_id": "way/1195629758"}, "geometry": {"type": "Point", "coordinates": [12.352924, 46.655917]}}, {"type": "Feature", "properties": {"wikidata": "Q1414399", "name": "Passo di Pennes", "status": "done", "osm_id": "node/1821668583"}, "geometry": {"type": "Point", "coordinates": [11.44222, 46.81889]}}, {"type": "Feature", "properties": {"wikidata": "Q1431901", "name": "Hochganghaus", "status": "done", "osm_id": "node/2803780686"}, "geometry": {"type": "Point", "coordinates": [11.085696, 46.712953]}}, {"type": "Feature", "properties": {"wikidata": "Q420503", "name": "Luson", "status": "done", "osm_id": "relation/47306"}, "geometry": {"type": "Point", "coordinates": [11.761084, 46.746466]}}, {"type": "Feature", "properties": {"wikidata": "Q256173", "name": "Sarentino", "status": "done", "osm_id": "relation/47282"}, "geometry": {"type": "Point", "coordinates": [11.356621, 46.642989]}}, {"type": "Feature", "properties": {"wikidata": "Q255568", "name": "Ortisei", "status": "done", "osm_id": "relation/47265"}, "geometry": {"type": "Point", "coordinates": [11.672138, 46.575208]}}, {"type": "Feature", "properties": {"wikidata": "Q1318279", "name": "Verdignes", "status": "done", "osm_id": "node/516016606"}, "geometry": {"type": "Point", "coordinates": [11.57277778, 46.65583333]}}, {"type": "Feature", "properties": {"wikidata": "Q1317592", "name": "Maso Eishof", "status": "done", "osm_id": "node/12067814813"}, "geometry": {"type": "Point", "coordinates": [10.96976389, 46.75250556]}}, {"type": "Feature", "properties": {"wikidata": "Q1302022", "name": "Sant\u2019Andrea", "status": "done", "osm_id": "relation/10954846"}, "geometry": {"type": "Point", "coordinates": [11.6775, 46.69944444]}}, {"type": "Feature", "properties": {"wikidata": "Q1302616", "name": "Altopiano dello Sciliar", "status": "missing", "osm_id": null}, "geometry": {"type": "Point", "coordinates": [11.51, 46.53]}}, {"type": "Feature", "properties": {"wikidata": "Q1316490", "name": "Merano Arte", "status": "done", "osm_id": "node/1774367486"}, "geometry": {"type": "Point", "coordinates": [11.162409, 46.671505]}}, {"type": "Feature", "properties": {"wikidata": "Q1302022", "name": "Sant\u2019Andrea", "status": "done", "osm_id": "relation/10954846"}, "geometry": {"type": "Point", "coordinates": [11.67776, 46.69922]}}, {"type": "Feature", "properties": {"wikidata": "Q1318279", "name": "Verdignes", "status": "done", "osm_id": "node/516016606"}, "geometry": {"type": "Point", "coordinates": [11.57221, 46.65653]}}, {"type": "Feature", "properties": {"wikidata": "Q1314069", "name": "chiesa di San Giorgio", "status": "done", "osm_id": "way/58796887"}, "geometry": {"type": "Point", "coordinates": [11.197523, 46.68352]}}, {"type": "Feature", "properties": {"wikidata": "Q1310733", "name": "Valle Isarco", "status": "done", "osm_id": "relation/6536796"}, "geometry": {"type": "Point", "coordinates": [11.65, 46.71666667]}}, {"type": "Feature", "properties": {"wikidata": "Q1306778", "name": "Rifugio Firenze", "status": "done", "osm_id": "way/121599291"}, "geometry": {"type": "Point", "coordinates": [11.75833, 46.5875]}}, {"type": "Feature", "properties": {"wikidata": "Q1029765", "name": "rifugio Tribulaun", "status": "done", "osm_id": "node/9917807792"}, "geometry": {"type": "Point", "coordinates": [11.3256, 46.9856]}}, {"type": "Feature", "properties": {"wikidata": "Q1048654", "name": "Castelfeder", "status": "done", "osm_id": "node/2971506466"}, "geometry": {"type": "Point", "coordinates": [11.290147, 46.33861]}}, {"type": "Feature", "properties": {"wikidata": "Q1031122", "name": "Longiar\u00f9", "status": "done", "osm_id": "node/239954041"}, "geometry": {"type": "Point", "coordinates": [11.862762, 46.641216]}}, {"type": "Feature", "properties": {"wikidata": "Q1116869", "name": "castel Gardena", "status": "done", "osm_id": "relation/4490190"}, "geometry": {"type": "Point", "coordinates": [11.733651, 46.555662]}}, {"type": "Feature", "properties": {"wikidata": "Q1112225", "name": "Castel Moos-Schulthaus", "status": "done", "osm_id": "way/106367396"}, "geometry": {"type": "Point", "coordinates": [11.247966666, 46.453844444]}}, {"type": "Feature", "properties": {"wikidata": "Q1106836", "name": "Colfosco", "status": "done", "osm_id": "node/287629655"}, "geometry": {"type": "Point", "coordinates": [11.855, 46.553]}}, {"type": "Feature", "properties": {"wikidata": "Q1089694", "name": "Castel Coira", "status": "done", "osm_id": "way/98787202"}, "geometry": {"type": "Point", "coordinates": [10.58873, 46.663539]}}, {"type": "Feature", "properties": {"wikidata": "Q1093210", "name": "Rio Cisles", "status": "done", "osm_id": "relation/9415247"}, "geometry": {"type": "Point", "coordinates": [11.726287, 46.556134]}}, {"type": "Feature", "properties": {"wikidata": "Q1069574", "name": "rifugio Giovanni Porro", "status": "done", "osm_id": "node/9917589294"}, "geometry": {"type": "Point", "coordinates": [11.80879, 46.95711]}}, {"type": "Feature", "properties": {"wikidata": "Q1106836", "name": "Colfosco", "status": "done", "osm_id": "node/287629655"}, "geometry": {"type": "Point", "coordinates": [11.85614, 46.55402]}}, {"type": "Feature", "properties": {"wikidata": "Q1121399", "name": "Plose", "status": "done", "osm_id": "node/1624946542"}, "geometry": {"type": "Point", "coordinates": [11.733333333, 46.695555555]}}, {"type": "Feature", "properties": {"wikidata": "Q1082692", "name": "Valles", "status": "done", "osm_id": "relation/1529960"}, "geometry": {"type": "Point", "coordinates": [11.625833333, 46.8425]}}, {"type": "Feature", "properties": {"wikidata": "Q1082692", "name": "Valles", "status": "done", "osm_id": "relation/1529960"}, "geometry": {"type": "Point", "coordinates": [11.62657, 46.84188]}}, {"type": "Feature", "properties": {"wikidata": "Q684624", "name": "Monte Lovello", "status": "done", "osm_id": "node/333900528"}, "geometry": {"type": "Point", "coordinates": [11.915555555, 47.0325]}}, {"type": "Feature", "properties": {"wikidata": "Q679359", "name": "Alti Tauri", "status": "done", "osm_id": "relation/2129656"}, "geometry": {"type": "Point", "coordinates": [12.5, 47.16666667]}}, {"type": "Feature", "properties": {"wikidata": "Q682619", "name": "Monti del Villgraten", "status": "done", "osm_id": "relation/2129147"}, "geometry": {"type": "Point", "coordinates": [12.3581, 46.8717]}}, {"type": "Feature", "properties": {"wikidata": "Q427323", "name": "chiesa dei Cappuccini", "status": "done", "osm_id": "way/244408791"}, "geometry": {"type": "Point", "coordinates": [11.352672, 46.496701]}}, {"type": "Feature", "properties": {"wikidata": "Q427253", "name": "Marebbe", "status": "done", "osm_id": "relation/47278"}, "geometry": {"type": "Point", "coordinates": [11.93123, 46.698]}}, {"type": "Feature", "properties": {"wikidata": "Q278942", "name": "Caldaro sulla Strada del Vino", "status": "done", "osm_id": "relation/47121"}, "geometry": {"type": "Point", "coordinates": [11.246203, 46.413259]}}, {"type": "Feature", "properties": {"wikidata": "Q266982", "name": "Parcines", "status": "done", "osm_id": "relation/47297"}, "geometry": {"type": "Point", "coordinates": [11.07352, 46.683848]}}, {"type": "Feature", "properties": {"wikidata": "Q1393565", "name": "Castel Enn", "status": "done", "osm_id": "relation/2962607"}, "geometry": {"type": "Point", "coordinates": [11.307818, 46.331773]}}, {"type": "Feature", "properties": {"wikidata": "Q1394303", "name": "galleria Fleres", "status": "missing", "osm_id": null}, "geometry": {"type": "Point", "coordinates": [11.43503, 46.963678]}}, {"type": "Feature", "properties": {"wikidata": "Q1408786", "name": "Vallunga", "status": "done", "osm_id": "way/677851555"}, "geometry": {"type": "Point", "coordinates": [11.797771, 46.574321]}}, {"type": "Feature", "properties": {"wikidata": "Q1383247", "name": "Sarnes", "status": "done", "osm_id": "relation/10954842"}, "geometry": {"type": "Point", "coordinates": [11.647317, 46.688549]}}, {"type": "Feature", "properties": {"wikidata": "Q1395510", "name": "rifugio Fanes", "status": "done", "osm_id": "way/237733853"}, "geometry": {"type": "Point", "coordinates": [12.01427778, 46.61216667]}}, {"type": "Feature", "properties": {"wikidata": "Q1383247", "name": "Sarnes", "status": "done", "osm_id": "relation/10954842"}, "geometry": {"type": "Point", "coordinates": [11.64773, 46.68758]}}, {"type": "Feature", "properties": {"wikidata": "Q1380151", "name": "chiesa evangelica di Bolzano", "status": "done", "osm_id": "way/92848140"}, "geometry": {"type": "Point", "coordinates": [11.342311, 46.504884]}}, {"type": "Feature", "properties": {"wikidata": "Q1403974", "name": "lago di Santa Maria", "status": "done", "osm_id": "relation/1676484"}, "geometry": {"type": "Point", "coordinates": [11.163247, 46.49645]}}, {"type": "Feature", "properties": {"wikidata": "Q1383080", "name": "Museo diocesano di Bressanone", "status": "done", "osm_id": "node/2560951233"}, "geometry": {"type": "Point", "coordinates": [11.656006, 46.714944]}}, {"type": "Feature", "properties": {"wikidata": "Q1381160", "name": "Museo Mercantile", "status": "done", "osm_id": "node/2518957272"}, "geometry": {"type": "Point", "coordinates": [11.354212, 46.499144]}}, {"type": "Feature", "properties": {"wikidata": "Q1347540", "name": "biotopo Buche di ghiaccio", "status": "done", "osm_id": "way/434983194"}, "geometry": {"type": "Point", "coordinates": [11.24616667, 46.44413889]}}, {"type": "Feature", "properties": {"wikidata": "Q1404761", "name": "lago di Favogna", "status": "done", "osm_id": "way/26623624"}, "geometry": {"type": "Point", "coordinates": [11.18493, 46.274441]}}, {"type": "Feature", "properties": {"wikidata": "Q1375167", "name": "Europa-Novacella", "status": "done", "osm_id": "relation/10923495"}, "geometry": {"type": "Point", "coordinates": [11.33777778, 46.4925]}}, {"type": "Feature", "properties": {"wikidata": "Q1392075", "name": "Castel Valle", "status": "done", "osm_id": "way/633242024"}, "geometry": {"type": "Point", "coordinates": [11.180391, 46.553711]}}, {"type": "Feature", "properties": {"wikidata": "Q1559206", "name": "Covelano", "status": "done", "osm_id": "node/443123791"}, "geometry": {"type": "Point", "coordinates": [10.765, 46.62055556]}}, {"type": "Feature", "properties": {"wikidata": "Q1554328", "name": "Ridanna", "status": "done", "osm_id": "node/540137413"}, "geometry": {"type": "Point", "coordinates": [11.30583333, 46.90972222]}}, {"type": "Feature", "properties": {"wikidata": "Q1559206", "name": "Covelano", "status": "done", "osm_id": "node/443123791"}, "geometry": {"type": "Point", "coordinates": [10.76458, 46.62077]}}, {"type": "Feature", "properties": {"wikidata": "Q1567424", "name": "Castello di Salorno", "status": "done", "osm_id": "way/32022806"}, "geometry": {"type": "Point", "coordinates": [11.206253, 46.235784]}}, {"type": "Feature", "properties": {"wikidata": "Q1552501", "name": "Forcella di Casies", "status": "done", "osm_id": "node/1415243982"}, "geometry": {"type": "Point", "coordinates": [12.2597, 46.8869]}}, {"type": "Feature", "properties": {"wikidata": "Q1565611", "name": "San Valentino alla Muta", "status": "done", "osm_id": "node/96098943"}, "geometry": {"type": "Point", "coordinates": [10.53552778, 46.763875]}}, {"type": "Feature", "properties": {"wikidata": "Q1565611", "name": "San Valentino alla Muta", "status": "done", "osm_id": "node/96098943"}, "geometry": {"type": "Point", "coordinates": [10.53397, 46.76415]}}, {"type": "Feature", "properties": {"wikidata": "Q445341", "name": "Morter", "status": "done", "osm_id": "node/401444978"}, "geometry": {"type": "Point", "coordinates": [10.82280556, 46.60686111]}}, {"type": "Feature", "properties": {"wikidata": "Q433534", "name": "Alta Badia", "status": "done", "osm_id": "relation/12342024"}, "geometry": {"type": "Point", "coordinates": [11.874, 46.553]}}, {"type": "Feature", "properties": {"wikidata": "Q436883", "name": "Castelvecchio", "status": "missing", "osm_id": null}, "geometry": {"type": "Point", "coordinates": [11.23777778, 46.37805556]}}, {"type": "Feature", "properties": {"wikidata": "Q433413", "name": "Ora", "status": "done", "osm_id": "relation/47139"}, "geometry": {"type": "Point", "coordinates": [11.29747, 46.34687]}}, {"type": "Feature", "properties": {"wikidata": "Q436919", "name": "Castello di Altenburg", "status": "done", "osm_id": "way/632422092"}, "geometry": {"type": "Point", "coordinates": [11.268051, 46.46953]}}, {"type": "Feature", "properties": {"wikidata": "Q1249840", "name": "lago di Resia", "status": "done", "osm_id": "relation/14119655"}, "geometry": {"type": "Point", "coordinates": [10.531, 46.801]}}, {"type": "Feature", "properties": {"wikidata": "Q1248168", "name": "Tanas", "status": "done", "osm_id": "node/907988886"}, "geometry": {"type": "Point", "coordinates": [10.66678, 46.63954]}}, {"type": "Feature", "properties": {"wikidata": "Q1248168", "name": "Tanas", "status": "done", "osm_id": "node/907988886"}, "geometry": {"type": "Point", "coordinates": [10.666523, 46.640008]}}, {"type": "Feature", "properties": {"wikidata": "Q1253073", "name": "Rifugio del Coston", "status": "done", "osm_id": "way/152221841"}, "geometry": {"type": "Point", "coordinates": [10.58333333, 46.50138889]}}, {"type": "Feature", "properties": {"wikidata": "Q1258083", "name": "rifugio Tre Scarperi", "status": "done", "osm_id": "way/83855898"}, "geometry": {"type": "Point", "coordinates": [12.297252, 46.674537]}}, {"type": "Feature", "properties": {"wikidata": "Q1248028", "name": "chiesa di San Vigilio al Valico", "status": "done", "osm_id": "way/224282137"}, "geometry": {"type": "Point", "coordinates": [11.093016, 46.636406]}}, {"type": "Feature", "properties": {"wikidata": "Q1251366", "name": "Museo di scienze naturali dell'Alto Adige", "status": "done", "osm_id": "node/4728979210"}, "geometry": {"type": "Point", "coordinates": [11.356996, 46.501132]}}, {"type": "Feature", "properties": {"wikidata": "Q1237965", "name": "chiesa dei Domenicani", "status": "done", "osm_id": "way/77602813"}, "geometry": {"type": "Point", "coordinates": [11.35206, 46.49754]}}, {"type": "Feature", "properties": {"wikidata": "Q1257499", "name": "Triangolo di Riva", "status": "done", "osm_id": "node/471656063"}, "geometry": {"type": "Point", "coordinates": [12.131111111, 46.963916666]}}, {"type": "Feature", "properties": {"wikidata": "Q1237760", "name": "Versoaln", "status": "missing", "osm_id": null}, "geometry": {"type": "Point", "coordinates": [11.18422794, 46.55381775]}}, {"type": "Feature", "properties": {"wikidata": "Q428018", "name": "Meltina", "status": "done", "osm_id": "relation/47263"}, "geometry": {"type": "Point", "coordinates": [11.256156, 46.586392]}}, {"type": "Feature", "properties": {"wikidata": "Q429585", "name": "trampolino Sulzenhof", "status": "done", "osm_id": "way/613920879"}, "geometry": {"type": "Point", "coordinates": [12.228466, 46.737586]}}, {"type": "Feature", "properties": {"wikidata": "Q431389", "name": "Monguelfo-Tesido", "status": "done", "osm_id": "relation/47312"}, "geometry": {"type": "Point", "coordinates": [12.104353, 46.756898]}}, {"type": "Feature", "properties": {"wikidata": "Q1509425", "name": "Rifugio Bella Vista", "status": "done", "osm_id": "way/153705216"}, "geometry": {"type": "Point", "coordinates": [10.7919, 46.7833]}}, {"type": "Feature", "properties": {"wikidata": "Q1484786", "name": "Castel Matschatsch", "status": "done", "osm_id": "way/50311692"}, "geometry": {"type": "Point", "coordinates": [11.233497222, 46.438530555]}}, {"type": "Feature", "properties": {"wikidata": "Q1486121", "name": "Scheiblehnkogel", "status": "missing", "osm_id": null}, "geometry": {"type": "Point", "coordinates": [11.144288, 46.930463]}}, {"type": "Feature", "properties": {"wikidata": "Q1492717", "name": "Galsaun", "status": "missing", "osm_id": null}, "geometry": {"type": "Point", "coordinates": [10.915656, 46.631728]}}, {"type": "Feature", "properties": {"wikidata": "Q1498681", "name": "Castel Thurnstein", "status": "done", "osm_id": "way/58989072"}, "geometry": {"type": "Point", "coordinates": [11.134462, 46.691761]}}, {"type": "Feature", "properties": {"wikidata": "Q1491186", "name": "Gaid", "status": "done", "osm_id": "relation/5454144"}, "geometry": {"type": "Point", "coordinates": [11.20863, 46.512585]}}, {"type": "Feature", "properties": {"wikidata": "Q1494776", "name": "rifugio Re Alberto", "status": "done", "osm_id": "way/123811150"}, "geometry": {"type": "Point", "coordinates": [11.623573, 46.459498]}}, {"type": "Feature", "properties": {"wikidata": "Q1493265", "name": "Passo delle Palade", "status": "done", "osm_id": "node/1319381346"}, "geometry": {"type": "Point", "coordinates": [11.11222222, 46.53055556]}}, {"type": "Feature", "properties": {"wikidata": "Q1500029", "name": "Monteplair", "status": "done", "osm_id": "node/1654653344"}, "geometry": {"type": "Point", "coordinates": [10.54472222, 46.7575]}}, {"type": "Feature", "properties": {"wikidata": "Q1490883", "name": "Rio Gadera", "status": "done", "osm_id": "relation/2220893"}, "geometry": {"type": "Point", "coordinates": [11.9, 46.783333333]}}, {"type": "Feature", "properties": {"wikidata": "Q1485098", "name": "Funivia del Colle", "status": "done", "osm_id": "way/30838313"}, "geometry": {"type": "Point", "coordinates": [11.36843562, 46.49064436]}}, {"type": "Feature", "properties": {"wikidata": "Q1500029", "name": "Monteplair", "status": "done", "osm_id": "node/1654653344"}, "geometry": {"type": "Point", "coordinates": [10.5441, 46.75742]}}, {"type": "Feature", "properties": {"wikidata": "Q1543573", "name": "Le Cave", "status": "done", "osm_id": "node/509767467"}, "geometry": {"type": "Point", "coordinates": [11.53673, 46.82041]}}, {"type": "Feature", "properties": {"wikidata": "Q1551289", "name": "cimitero Windschnur", "status": "missing", "osm_id": null}, "geometry": {"type": "Point", "coordinates": [12.0393, 46.774]}}, {"type": "Feature", "properties": {"wikidata": "Q1544141", "name": "San Cipriano", "status": "done", "osm_id": "node/61964163"}, "geometry": {"type": "Point", "coordinates": [11.557, 46.47177]}}, {"type": "Feature", "properties": {"wikidata": "Q1552341", "name": "lago Verde", "status": "done", "osm_id": "way/25740721"}, "geometry": {"type": "Point", "coordinates": [10.79664167, 46.48161111]}}, {"type": "Feature", "properties": {"wikidata": "Q1542597", "name": "Grand Hotel Dobbiaco", "status": "done", "osm_id": "way/166705991"}, "geometry": {"type": "Point", "coordinates": [12.225656, 46.723101]}}, {"type": "Feature", "properties": {"wikidata": "Q1544141", "name": "San Cipriano", "status": "done", "osm_id": "node/61964163"}, "geometry": {"type": "Point", "coordinates": [11.55569444, 46.47166667]}}, {"type": "Feature", "properties": {"wikidata": "Q1543463", "name": "Collezione di presepi del Palazzo Vescovile", "status": "missing", "osm_id": null}, "geometry": {"type": "Point", "coordinates": [11.656006, 46.714944]}}, {"type": "Feature", "properties": {"wikidata": "Q1543573", "name": "Le Cave", "status": "done", "osm_id": "node/509767467"}, "geometry": {"type": "Point", "coordinates": [11.535, 46.819]}}, {"type": "Feature", "properties": {"wikidata": "Q1544290", "name": "rifugio Tabaretta", "status": "done", "osm_id": "way/77383435"}, "geometry": {"type": "Point", "coordinates": [10.550898, 46.530074]}}, {"type": "Feature", "properties": {"wikidata": "Q1546471", "name": "Gries-San Quirino", "status": "done", "osm_id": "relation/10923494"}, "geometry": {"type": "Point", "coordinates": [11.33888889, 46.500379]}}, {"type": "Feature", "properties": {"wikidata": "Q1548797", "name": "Picco Pal\u00f9", "status": "done", "osm_id": "node/811729153"}, "geometry": {"type": "Point", "coordinates": [12.022777777, 46.950833333]}}, {"type": "Feature", "properties": {"wikidata": "Q1542417", "name": "monte dei Granati", "status": "missing", "osm_id": null}, "geometry": {"type": "Point", "coordinates": [11.07192, 46.837]}}, {"type": "Feature", "properties": {"wikidata": "Q454931", "name": "Passo Gola", "status": "done", "osm_id": "node/1446394478"}, "geometry": {"type": "Point", "coordinates": [12.132429, 46.984101]}}, {"type": "Feature", "properties": {"wikidata": "Q445369", "name": "lago di Braies", "status": "done", "osm_id": "relation/14517899"}, "geometry": {"type": "Point", "coordinates": [12.085, 46.693611111]}}, {"type": "Feature", "properties": {"wikidata": "Q460079", "name": "Gudon", "status": "done", "osm_id": "node/515976677"}, "geometry": {"type": "Point", "coordinates": [11.60138889, 46.64861111]}}, {"type": "Feature", "properties": {"wikidata": "Q456137", "name": "Vedrette di Ries", "status": "done", "osm_id": "relation/2129138"}, "geometry": {"type": "Point", "coordinates": [12.1417, 46.9125]}}, {"type": "Feature", "properties": {"wikidata": "Q452593", "name": "Istituto Ladino \"Micur\u00e0 de R\u00fc\"", "status": "missing", "osm_id": null}, "geometry": {"type": "Point", "coordinates": [11.893242, 46.68082]}}, {"type": "Feature", "properties": {"wikidata": "Q460345", "name": "San Vigilio", "status": "done", "osm_id": "node/64777128"}, "geometry": {"type": "Point", "coordinates": [11.93104, 46.69884]}}, {"type": "Feature", "properties": {"wikidata": "Q263900", "name": "Naturno", "status": "done", "osm_id": "relation/47271"}, "geometry": {"type": "Point", "coordinates": [11.004195, 46.649886]}}, {"type": "Feature", "properties": {"wikidata": "Q263305", "name": "Vipiteno", "status": "done", "osm_id": "relation/47334"}, "geometry": {"type": "Point", "coordinates": [11.43194, 46.896324]}}, {"type": "Feature", "properties": {"wikidata": "Q739724", "name": "Cima Nove", "status": "done", "osm_id": "node/307302677"}, "geometry": {"type": "Point", "coordinates": [11.98132, 46.63002]}}, {"type": "Feature", "properties": {"wikidata": "Q740279", "name": "Parco naturale Fanes - Sennes - Braies", "status": "done", "osm_id": "relation/7119254"}, "geometry": {"type": "Point", "coordinates": [12.054405, 46.660983]}}, {"type": "Feature", "properties": {"wikidata": "Q749057", "name": "galleria Ast", "status": "done", "osm_id": "way/171780268"}, "geometry": {"type": "Point", "coordinates": [11.4001459, 46.9539103]}}, {"type": "Feature", "properties": {"wikidata": "Q701816", "name": "Palla Bianca", "status": "done", "osm_id": "node/26865132"}, "geometry": {"type": "Point", "coordinates": [10.726096, 46.797819]}}, {"type": "Feature", "properties": {"wikidata": "Q730973", "name": "Cima Fiammante", "status": "done", "osm_id": "node/2509870619"}, "geometry": {"type": "Point", "coordinates": [11.038611111, 46.735]}}, {"type": "Feature", "properties": {"wikidata": "Q739282", "name": "Castello di Rodengo", "status": "done", "osm_id": "relation/2428085"}, "geometry": {"type": "Point", "coordinates": [11.687345, 46.77336]}}, {"type": "Feature", "properties": {"wikidata": "Q749062", "name": "Valle di Valdurna", "status": "done", "osm_id": "way/660510549"}, "geometry": {"type": "Point", "coordinates": [11.438888888, 46.738888888]}}, {"type": "Feature", "properties": {"wikidata": "Q746557", "name": "rifugio Gran Pilastro", "status": "done", "osm_id": "node/2755910091"}, "geometry": {"type": "Point", "coordinates": [11.70028, 46.96389]}}, {"type": "Feature", "properties": {"wikidata": "Q739724", "name": "Cima Nove", "status": "done", "osm_id": "node/307302677"}, "geometry": {"type": "Point", "coordinates": [11.981111111, 46.63]}}, {"type": "Feature", "properties": {"wikidata": "Q759751", "name": "Villa Santa Caterina", "status": "missing", "osm_id": null}, "geometry": {"type": "Point", "coordinates": [11.94633, 46.8138]}}, {"type": "Feature", "properties": {"wikidata": "Q738951", "name": "Castello di Presule", "status": "done", "osm_id": "way/164433883"}, "geometry": {"type": "Point", "coordinates": [11.495637, 46.505434]}}, {"type": "Feature", "properties": {"wikidata": "Q433365", "name": "Nova Ponente", "status": "done", "osm_id": "relation/47145"}, "geometry": {"type": "Point", "coordinates": [11.425181, 46.413993]}}, {"type": "Feature", "properties": {"wikidata": "Q18476325", "name": "Rina", "status": "done", "osm_id": "node/530719897"}, "geometry": {"type": "Point", "coordinates": [11.87808, 46.71588]}}, {"type": "Feature", "properties": {"wikidata": "Q18476316", "name": "Rifiano", "status": "missing", "osm_id": null}, "geometry": {"type": "Point", "coordinates": [11.18057, 46.70287]}}, {"type": "Feature", "properties": {"wikidata": "Q18476309", "name": "Rifair", "status": "done", "osm_id": "node/3188206895"}, "geometry": {"type": "Point", "coordinates": [10.47899, 46.64781]}}, {"type": "Feature", "properties": {"wikidata": "Q697937", "name": "Similaun", "status": "done", "osm_id": "way/27503691"}, "geometry": {"type": "Point", "coordinates": [10.880556, 46.763611]}}, {"type": "Feature", "properties": {"wikidata": "Q700225", "name": "Gran Pilastro", "status": "done", "osm_id": "node/333899881"}, "geometry": {"type": "Point", "coordinates": [11.727675, 46.972519]}}, {"type": "Feature", "properties": {"wikidata": "Q698451", "name": "Val Pusteria", "status": "done", "osm_id": "way/338451906"}, "geometry": {"type": "Point", "coordinates": [12.369555555, 46.7405]}}, {"type": "Feature", "properties": {"wikidata": "Q698475", "name": "Burgraviato", "status": "missing", "osm_id": null}, "geometry": {"type": "Point", "coordinates": [11.15, 46.68]}}, {"type": "Feature", "properties": {"wikidata": "Q694318", "name": "Gran Zebr\u00f9", "status": "done", "osm_id": "node/452511591"}, "geometry": {"type": "Point", "coordinates": [10.568333333, 46.478611111]}}, {"type": "Feature", "properties": {"wikidata": "Q18478197", "name": "Valgenauna", "status": "done", "osm_id": "node/510808284"}, "geometry": {"type": "Point", "coordinates": [11.50626, 46.86802]}}, {"type": "Feature", "properties": {"wikidata": "Q18478179", "name": "Valdaora di Sotto", "status": "done", "osm_id": "node/418013839"}, "geometry": {"type": "Point", "coordinates": [12.01818, 46.7681]}}, {"type": "Feature", "properties": {"wikidata": "Q18478211", "name": "Vallarga", "status": "missing", "osm_id": null}, "geometry": {"type": "Point", "coordinates": [11.72739, 46.84282]}}, {"type": "Feature", "properties": {"wikidata": "Q18478260", "name": "Valletta", "status": "missing", "osm_id": null}, "geometry": {"type": "Point", "coordinates": [11.77935, 46.74027]}}, {"type": "Feature", "properties": {"wikidata": "Q18478219", "name": "Vallarga-Tintal", "status": "missing", "osm_id": null}, "geometry": {"type": "Point", "coordinates": [11.8668, 46.73156]}}, {"type": "Feature", "properties": {"wikidata": "Q18478259", "name": "Vallesina", "status": "missing", "osm_id": null}, "geometry": {"type": "Point", "coordinates": [11.25651, 46.57209]}}, {"type": "Feature", "properties": {"wikidata": "Q18478240", "name": "Valle San Silvestro", "status": "done", "osm_id": "node/2444676194"}, "geometry": {"type": "Point", "coordinates": [12.2337, 46.74598]}}, {"type": "Feature", "properties": {"wikidata": "Q18478352", "name": "Via Aslago", "status": "missing", "osm_id": null}, "geometry": {"type": "Point", "coordinates": [11.15074, 46.69877]}}, {"type": "Feature", "properties": {"wikidata": "Q18478323", "name": "Vernurio", "status": "done", "osm_id": "node/2409171814"}, "geometry": {"type": "Point", "coordinates": [11.182054, 46.726308]}}, {"type": "Feature", "properties": {"wikidata": "Q18478323", "name": "Vernurio", "status": "done", "osm_id": "node/2409171814"}, "geometry": {"type": "Point", "coordinates": [11.18208, 46.72684]}}, {"type": "Feature", "properties": {"wikidata": "Q18478359", "name": "Viadacqua", "status": "done", "osm_id": "node/495289005"}, "geometry": {"type": "Point", "coordinates": [11.25062, 46.7184]}}, {"type": "Feature", "properties": {"wikidata": "Q774706", "name": "chiesa di San Giovanni in Villa", "status": "done", "osm_id": "way/183453929"}, "geometry": {"type": "Point", "coordinates": [11.359024, 46.502068]}}, {"type": "Feature", "properties": {"wikidata": "Q800560", "name": "stazione di Bolzano", "status": "done", "osm_id": "node/1455004982"}, "geometry": {"type": "Point", "coordinates": [11.358436, 46.496619]}}, {"type": "Feature", "properties": {"wikidata": "Q823048", "name": "Museo della Val Gardena", "status": "done", "osm_id": "node/8891086186"}, "geometry": {"type": "Point", "coordinates": [11.674619137, 46.573906231]}}, {"type": "Feature", "properties": {"wikidata": "Q808368", "name": "Barmer Spitze", "status": "missing", "osm_id": null}, "geometry": {"type": "Point", "coordinates": [12.152119444, 46.915861111]}}, {"type": "Feature", "properties": {"wikidata": "Q782277", "name": "Giogo Alto", "status": "done", "osm_id": "node/454568355"}, "geometry": {"type": "Point", "coordinates": [10.7994, 46.7881]}}, {"type": "Feature", "properties": {"wikidata": "Q18476244", "name": "Reisenschuh", "status": "missing", "osm_id": null}, "geometry": {"type": "Point", "coordinates": [11.38958, 46.95119]}}, {"type": "Feature", "properties": {"wikidata": "Q798667", "name": "Tre Chiese", "status": "missing", "osm_id": null}, "geometry": {"type": "Point", "coordinates": [11.51361111, 46.61722222]}}, {"type": "Feature", "properties": {"wikidata": "Q820730", "name": "Riscone", "status": "done", "osm_id": "node/534253626"}, "geometry": {"type": "Point", "coordinates": [11.95111111, 46.77694444]}}, {"type": "Feature", "properties": {"wikidata": "Q762792", "name": "castel Herbstenburg", "status": "done", "osm_id": "way/237654228"}, "geometry": {"type": "Point", "coordinates": [12.224622, 46.735949]}}, {"type": "Feature", "properties": {"wikidata": "Q433114", "name": "Nalles", "status": "done", "osm_id": "relation/47245"}, "geometry": {"type": "Point", "coordinates": [11.204627, 46.543487]}}, {"type": "Feature", "properties": {"wikidata": "Q782829", "name": "ponte Romano", "status": "done", "osm_id": "way/23595964"}, "geometry": {"type": "Point", "coordinates": [11.16926, 46.67158]}}, {"type": "Feature", "properties": {"wikidata": "Q819783", "name": "Berghotel Kasern", "status": "done", "osm_id": "way/137126941"}, "geometry": {"type": "Point", "coordinates": [12.12770556, 47.05055]}}, {"type": "Feature", "properties": {"wikidata": "Q18476237", "name": "Reicheggen", "status": "missing", "osm_id": null}, "geometry": {"type": "Point", "coordinates": [11.94899, 46.99035]}}, {"type": "Feature", "properties": {"wikidata": "Q781427", "name": "Castel Welsperg", "status": "done", "osm_id": "way/1347172182"}, "geometry": {"type": "Point", "coordinates": [12.113838, 46.759757]}}, {"type": "Feature", "properties": {"wikidata": "Q18476290", "name": "Riebisen", "status": "done", "osm_id": "node/2171828160"}, "geometry": {"type": "Point", "coordinates": [12.23076, 46.8182]}}, {"type": "Feature", "properties": {"wikidata": "Q18476225", "name": "Redagno di Sotto", "status": "done", "osm_id": "node/291319634"}, "geometry": {"type": "Point", "coordinates": [11.38807, 46.33623]}}, {"type": "Feature", "properties": {"wikidata": "Q433287", "name": "Nova Levante", "status": "done", "osm_id": "relation/47164"}, "geometry": {"type": "Point", "coordinates": [11.538951, 46.430234]}}, {"type": "Feature", "properties": {"wikidata": "Q18478271", "name": "Vandoies di Sotto", "status": "missing", "osm_id": null}, "geometry": {"type": "Point", "coordinates": [11.72068, 46.81513]}}, {"type": "Feature", "properties": {"wikidata": "Q18478270", "name": "Vandoies di Sopra", "status": "missing", "osm_id": null}, "geometry": {"type": "Point", "coordinates": [11.7548, 46.814]}}, {"type": "Feature", "properties": {"wikidata": "Q18478264", "name": "Vallone", "status": "done", "osm_id": "node/13448062836"}, "geometry": {"type": "Point", "coordinates": [12.14261, 46.71786]}}, {"type": "Feature", "properties": {"wikidata": "Q18478271", "name": "Vandoies di Sotto", "status": "missing", "osm_id": null}, "geometry": {"type": "Point", "coordinates": [11.72183, 46.816]}}, {"type": "Feature", "properties": {"wikidata": "Q376571", "name": "Castel Roncolo", "status": "done", "osm_id": "way/221552585"}, "geometry": {"type": "Point", "coordinates": [11.358994, 46.517484]}}, {"type": "Feature", "properties": {"wikidata": "Q376618", "name": "Caines", "status": "done", "osm_id": "relation/47305"}, "geometry": {"type": "Point", "coordinates": [11.169487, 46.69948]}}, {"type": "Feature", "properties": {"wikidata": "Q376579", "name": "ferrovia della Val Venosta", "status": "done", "osm_id": "relation/1191143"}, "geometry": {"type": "Point", "coordinates": [10.8605, 46.6197]}}, {"type": "Feature", "properties": {"wikidata": "Q376275", "name": "Bronzolo", "status": "done", "osm_id": "relation/47173"}, "geometry": {"type": "Point", "coordinates": [11.31951, 46.40446]}}, {"type": "Feature", "properties": {"wikidata": "Q18476503", "name": "Rumestluns", "status": "missing", "osm_id": null}, "geometry": {"type": "Point", "coordinates": [11.94316, 46.65123]}}, {"type": "Feature", "properties": {"wikidata": "Q18476489", "name": "Roz\u00f2", "status": "done", "osm_id": "node/530719848"}, "geometry": {"type": "Point", "coordinates": [11.88803, 46.66437]}}, {"type": "Feature", "properties": {"wikidata": "Q18476513", "name": "Sabiona", "status": "missing", "osm_id": null}, "geometry": {"type": "Point", "coordinates": [11.56779, 46.64461]}}, {"type": "Feature", "properties": {"wikidata": "Q18476480", "name": "Rovena", "status": "done", "osm_id": "node/1657648276"}, "geometry": {"type": "Point", "coordinates": [10.50805, 46.69895]}}, {"type": "Feature", "properties": {"wikidata": "Q646359", "name": "Monte Collaspro", "status": "done", "osm_id": "node/2918034667"}, "geometry": {"type": "Point", "coordinates": [12.135277777, 46.902777777]}}, {"type": "Feature", "properties": {"wikidata": "Q650512", "name": "Pineta", "status": "done", "osm_id": "node/2315416393"}, "geometry": {"type": "Point", "coordinates": [11.347027777, 46.439083333]}}, {"type": "Feature", "properties": {"wikidata": "Q18476403", "name": "Riopratino", "status": "missing", "osm_id": null}, "geometry": {"type": "Point", "coordinates": [11.94233, 46.773]}}, {"type": "Feature", "properties": {"wikidata": "Q18476473", "name": "Ronco", "status": "missing", "osm_id": null}, "geometry": {"type": "Point", "coordinates": [11.77479, 46.74611]}}, {"type": "Feature", "properties": {"wikidata": "Q18476463", "name": "Ronchi", "status": "missing", "osm_id": null}, "geometry": {"type": "Point", "coordinates": [11.23593, 46.32866]}}, {"type": "Feature", "properties": {"wikidata": "Q18476611", "name": "San Costantino", "status": "missing", "osm_id": null}, "geometry": {"type": "Point", "coordinates": [11.51994, 46.53645]}}, {"type": "Feature", "properties": {"wikidata": "Q18476575", "name": "Saltusio", "status": "done", "osm_id": "node/279816047"}, "geometry": {"type": "Point", "coordinates": [11.19907, 46.72952]}}, {"type": "Feature", "properties": {"wikidata": "Q18476584", "name": "San Benedetto", "status": "done", "osm_id": "node/1856052318"}, "geometry": {"type": "Point", "coordinates": [11.69176, 46.78848]}}, {"type": "Feature", "properties": {"wikidata": "Q365711", "name": "Sassopiatto", "status": "done", "osm_id": "node/307292644"}, "geometry": {"type": "Point", "coordinates": [11.712222222, 46.516388888]}}, {"type": "Feature", "properties": {"wikidata": "Q365711", "name": "Sassopiatto", "status": "done", "osm_id": "node/307292644"}, "geometry": {"type": "Point", "coordinates": [11.71564, 46.5143]}}, {"type": "Feature", "properties": {"wikidata": "Q338872", "name": "Piz Lat", "status": "missing", "osm_id": null}, "geometry": {"type": "Point", "coordinates": [10.46884, 46.84776]}}, {"type": "Feature", "properties": {"wikidata": "Q363425", "name": "Val d'Ultimo", "status": "done", "osm_id": "way/339521245"}, "geometry": {"type": "Point", "coordinates": [11.0, 46.55]}}, {"type": "Feature", "properties": {"wikidata": "Q351826", "name": "Wipptal", "status": "done", "osm_id": "relation/19042352"}, "geometry": {"type": "Point", "coordinates": [11.5, 47.0]}}, {"type": "Feature", "properties": {"wikidata": "Q365867", "name": "Val Ridanna", "status": "done", "osm_id": "way/808815089"}, "geometry": {"type": "Point", "coordinates": [11.33, 46.9]}}, {"type": "Feature", "properties": {"wikidata": "Q1637526", "name": "Molini di Tures", "status": "done", "osm_id": "node/270542964"}, "geometry": {"type": "Point", "coordinates": [11.94333333, 46.89944444]}}, {"type": "Feature", "properties": {"wikidata": "Q1654198", "name": "Castel Tirolo", "status": "done", "osm_id": "way/33094226"}, "geometry": {"type": "Point", "coordinates": [11.144793, 46.694494]}}, {"type": "Feature", "properties": {"wikidata": "Q1637526", "name": "Molini di Tures", "status": "done", "osm_id": "node/270542964"}, "geometry": {"type": "Point", "coordinates": [11.94317, 46.89926]}}, {"type": "Feature", "properties": {"wikidata": "Q1646891", "name": "Castel Juval", "status": "done", "osm_id": "node/362780422"}, "geometry": {"type": "Point", "coordinates": [10.967832, 46.651752]}}, {"type": "Feature", "properties": {"wikidata": "Q1643238", "name": "rifugio Canziani", "status": "done", "osm_id": "way/95032339"}, "geometry": {"type": "Point", "coordinates": [10.799131, 46.482452]}}, {"type": "Feature", "properties": {"wikidata": "Q1623432", "name": "Angelo Grande", "status": "done", "osm_id": "node/425371507"}, "geometry": {"type": "Point", "coordinates": [10.64554, 46.54385]}}, {"type": "Feature", "properties": {"wikidata": "Q1646981", "name": "rifugio Peder\u00fc", "status": "done", "osm_id": "way/147410828"}, "geometry": {"type": "Point", "coordinates": [12.041364, 46.638362]}}, {"type": "Feature", "properties": {"wikidata": "Q1623957", "name": "Dente Alto", "status": "done", "osm_id": "node/2812904202"}, "geometry": {"type": "Point", "coordinates": [11.3075, 46.98388889]}}, {"type": "Feature", "properties": {"wikidata": "Q1623432", "name": "Angelo Grande", "status": "done", "osm_id": "node/425371507"}, "geometry": {"type": "Point", "coordinates": [10.647222222, 46.545555555]}}, {"type": "Feature", "properties": {"wikidata": "Q1653731", "name": "San Nicol\u00f2", "status": "done", "osm_id": "node/4485775980"}, "geometry": {"type": "Point", "coordinates": [10.92393, 46.51056]}}, {"type": "Feature", "properties": {"wikidata": "Q1653731", "name": "San Nicol\u00f2", "status": "done", "osm_id": "node/4485775980"}, "geometry": {"type": "Point", "coordinates": [10.92393333, 46.51168056]}}, {"type": "Feature", "properties": {"wikidata": "Q256337", "name": "Sesto", "status": "done", "osm_id": "relation/47286"}, "geometry": {"type": "Point", "coordinates": [12.350544, 46.702743]}}, {"type": "Feature", "properties": {"wikidata": "Q679261", "name": "Alpi dello Stubai", "status": "done", "osm_id": "relation/2127978"}, "geometry": {"type": "Point", "coordinates": [11.195069444, 47.086955555]}}, {"type": "Feature", "properties": {"wikidata": "Q671478", "name": "San Felice", "status": "done", "osm_id": "node/1643330566"}, "geometry": {"type": "Point", "coordinates": [11.13166667, 46.49194444]}}, {"type": "Feature", "properties": {"wikidata": "Q673009", "name": "Cima delle Anime", "status": "missing", "osm_id": null}, "geometry": {"type": "Point", "coordinates": [11.044444444, 46.801388888]}}, {"type": "Feature", "properties": {"wikidata": "Q264549", "name": "Cortaccia sulla Strada del Vino", "status": "done", "osm_id": "relation/47090"}, "geometry": {"type": "Point", "coordinates": [11.22388, 46.31401]}}, {"type": "Feature", "properties": {"wikidata": "Q264624", "name": "Parco naturale Monte Corno", "status": "done", "osm_id": "relation/12286952"}, "geometry": {"type": "Point", "coordinates": [11.308837, 46.286105]}}, {"type": "Feature", "properties": {"wikidata": "Q18476167", "name": "Raminges di Sotto", "status": "missing", "osm_id": null}, "geometry": {"type": "Point", "coordinates": [11.42145, 46.90433]}}, {"type": "Feature", "properties": {"wikidata": "Q18476212", "name": "Redagno di Sopra", "status": "done", "osm_id": "node/291320543"}, "geometry": {"type": "Point", "coordinates": [11.39765, 46.34572]}}, {"type": "Feature", "properties": {"wikidata": "Q18476201", "name": "Rasun di Sopra", "status": "done", "osm_id": "node/289236147"}, "geometry": {"type": "Point", "coordinates": [12.05709, 46.78958]}}, {"type": "Feature", "properties": {"wikidata": "Q18476677", "name": "San Genesio", "status": "missing", "osm_id": null}, "geometry": {"type": "Point", "coordinates": [11.92456, 46.658]}}, {"type": "Feature", "properties": {"wikidata": "Q18476655", "name": "San Floriano", "status": "done", "osm_id": "node/2667649297"}, "geometry": {"type": "Point", "coordinates": [11.51776, 46.38613]}}, {"type": "Feature", "properties": {"wikidata": "Q18476677", "name": "San Genesio", "status": "missing", "osm_id": null}, "geometry": {"type": "Point", "coordinates": [11.92399, 46.65763]}}, {"type": "Feature", "properties": {"wikidata": "Q18476683", "name": "San Giacomo", "status": "missing", "osm_id": null}, "geometry": {"type": "Point", "coordinates": [11.60036, 46.96713]}}, {"type": "Feature", "properties": {"wikidata": "Q18476633", "name": "San Florian", "status": "done", "osm_id": "node/4388009100"}, "geometry": {"type": "Point", "coordinates": [12.08632, 46.83917]}}, {"type": "Feature", "properties": {"wikidata": "Q18476648", "name": "San Floriano di Valluzza", "status": "missing", "osm_id": null}, "geometry": {"type": "Point", "coordinates": [11.6624, 46.62471]}}, {"type": "Feature", "properties": {"wikidata": "Q1534537", "name": "Val Senales", "status": "done", "osm_id": "way/808871985"}, "geometry": {"type": "Point", "coordinates": [10.860833333, 46.722222222]}}, {"type": "Feature", "properties": {"wikidata": "Q1537912", "name": "Cima San Cassiano", "status": "done", "osm_id": "node/513800778"}, "geometry": {"type": "Point", "coordinates": [11.496666666, 46.708888888]}}, {"type": "Feature", "properties": {"wikidata": "Q1535983", "name": "Coldrano", "status": "done", "osm_id": "node/401445531"}, "geometry": {"type": "Point", "coordinates": [10.825, 46.62]}}, {"type": "Feature", "properties": {"wikidata": "Q1523492", "name": "Rio di Vizze", "status": "done", "osm_id": "relation/18226294"}, "geometry": {"type": "Point", "coordinates": [11.449166666, 46.884444444]}}, {"type": "Feature", "properties": {"wikidata": "Q1526768", "name": "Cornaiano", "status": "done", "osm_id": "relation/5454145"}, "geometry": {"type": "Point", "coordinates": [11.28111111, 46.46333333]}}, {"type": "Feature", "properties": {"wikidata": "Q1527922", "name": "Touriseum", "status": "missing", "osm_id": null}, "geometry": {"type": "Point", "coordinates": [11.185305, 46.660799]}}, {"type": "Feature", "properties": {"wikidata": "Q1535861", "name": "Versciaco", "status": "done", "osm_id": "relation/2068104"}, "geometry": {"type": "Point", "coordinates": [12.33635833, 46.73497778]}}, {"type": "Feature", "properties": {"wikidata": "Q1537657", "name": "rifugio Puez", "status": "done", "osm_id": "way/152266832"}, "geometry": {"type": "Point", "coordinates": [11.829304, 46.590013]}}, {"type": "Feature", "properties": {"wikidata": "Q1535983", "name": "Coldrano", "status": "done", "osm_id": "node/401445531"}, "geometry": {"type": "Point", "coordinates": [10.82648, 46.62266]}}, {"type": "Feature", "properties": {"wikidata": "Q18476374", "name": "Rio Molino", "status": "done", "osm_id": "node/418014250"}, "geometry": {"type": "Point", "coordinates": [12.02029, 46.75745]}},