{"type": "FeatureCollection", "features": [{"type": "Feature", "properties": {"wikidata": "Q784660", "name": "basilica dello Spirito Santo", "status": "done", "osm_id": "way/267279208"}, "geometry": {"type": "Point", "coordinates": [14.24899, 40.84712]}}, {"type": "Feature", "properties": {"wikidata": "Q385226", "name": "chiesa di San Felice in Pincis", "status": "done", "osm_id": "way/288075660"}, "geometry": {"type": "Point", "coordinates": [14.2629, 40.8534]}}, {"type": "Feature", "properties": {"wikidata": "Q534088", "name": "chiesa di Santa Maria dei Bianchi dell'Arte dei Verdummari", "status": "missing", "osm_id": null}, "geometry": {"type": "Point", "coordinates": [14.26503056, 40.85199722]}}, {"type": "Feature", "properties": {"wikidata": "Q1123155", "name": "Comunit\u00e0 montana Monti Lattari - Penisola Sorrentina", "status": "missing", "osm_id": null}, "geometry": {"type": "Point", "coordinates": [14.55, 40.63333333]}}, {"type": "Feature", "properties": {"wikidata": "Q1228302", "name": "Palazzo della Regina Giovanna", "status": "missing", "osm_id": null}, "geometry": {"type": "Point", "coordinates": [14.25, 40.83333333]}}, {"type": "Feature", "properties": {"wikidata": "Q1239402", "name": "Porta dello Spirito Santo", "status": "missing", "osm_id": null}, "geometry": {"type": "Point", "coordinates": [14.25, 40.83333333]}}, {"type": "Feature", "properties": {"wikidata": "Q1225142", "name": "oratorio della Confraternita dei Bianchi", "status": "missing", "osm_id": null}, "geometry": {"type": "Point", "coordinates": [14.248393, 40.847404]}}, {"type": "Feature", "properties": {"wikidata": "Q1120354", "name": "Palazzo Mormando", "status": "done", "osm_id": "relation/3619207"}, "geometry": {"type": "Point", "coordinates": [14.25825, 40.849731]}}, {"type": "Feature", "properties": {"wikidata": "Q1115670", "name": "Palazzo Mirelli di Teora", "status": "done", "osm_id": "way/434338487"}, "geometry": {"type": "Point", "coordinates": [14.22557, 40.83261]}}, {"type": "Feature", "properties": {"wikidata": "Q1218468", "name": "Agro nolano", "status": "missing", "osm_id": null}, "geometry": {"type": "Point", "coordinates": [14.45, 40.9333]}}, {"type": "Feature", "properties": {"wikidata": "Q1123182", "name": "Comunit\u00e0 montana Penisola Amalfitana", "status": "missing", "osm_id": null}, "geometry": {"type": "Point", "coordinates": [14.63333333, 40.7]}}, {"type": "Feature", "properties": {"wikidata": "Q3070312", "name": "Santa Croce", "status": "missing", "osm_id": null}, "geometry": {"type": "Point", "coordinates": [14.684722222, 40.783333333]}}, {"type": "Feature", "properties": {"wikidata": "Q3220896", "name": "Sant'Andrea del Pizzone", "status": "done", "osm_id": "node/4318865968"}, "geometry": {"type": "Point", "coordinates": [14.037777777, 41.144444444]}}, {"type": "Feature", "properties": {"wikidata": "Q3046404", "name": "Cortedomini", "status": "missing", "osm_id": null}, "geometry": {"type": "Point", "coordinates": [14.684722222, 40.783333333]}}, {"type": "Feature", "properties": {"wikidata": "Q3606036", "name": "Aeroporto di Benevento-Olivola", "status": "done", "osm_id": "way/341212443"}, "geometry": {"type": "Point", "coordinates": [14.7472, 41.1775]}}, {"type": "Feature", "properties": {"wikidata": "Q3606886", "name": "Agro aversano", "status": "missing", "osm_id": null}, "geometry": {"type": "Point", "coordinates": [14.2167, 41.0833]}}, {"type": "Feature", "properties": {"wikidata": "Q2979771", "name": "chiostro di San Pietro ad Aram", "status": "missing", "osm_id": null}, "geometry": {"type": "Point", "coordinates": [14.2667, 40.8513]}}, {"type": "Feature", "properties": {"wikidata": "Q3361312", "name": "Palazzo Mastelloni", "status": "done", "osm_id": "relation/3614835"}, "geometry": {"type": "Point", "coordinates": [14.248637, 40.844205]}}, {"type": "Feature", "properties": {"wikidata": "Q1255115", "name": "Piana del Sele", "status": "missing", "osm_id": null}, "geometry": {"type": "Point", "coordinates": [14.966666666, 40.5]}}, {"type": "Feature", "properties": {"wikidata": "Q3657677", "name": "cappella di Santa Lucia", "status": "missing", "osm_id": null}, "geometry": {"type": "Point", "coordinates": [14.44809, 40.66215]}}, {"type": "Feature", "properties": {"wikidata": "Q3635687", "name": "basilica di Santa Maria della Nativit\u00e0 e San Ciro", "status": "done", "osm_id": "way/436159431"}, "geometry": {"type": "Point", "coordinates": [14.338868, 40.814497]}}, {"type": "Feature", "properties": {"wikidata": "Q3657530", "name": "cappella di Palazzo Ruffo di Bagnara", "status": "missing", "osm_id": null}, "geometry": {"type": "Point", "coordinates": [14.24969, 40.84963]}}, {"type": "Feature", "properties": {"wikidata": "Q1255593", "name": "catacombe di san Aspreno", "status": "missing", "osm_id": null}, "geometry": {"type": "Point", "coordinates": [14.25, 40.83333333]}}, {"type": "Feature", "properties": {"wikidata": "Q1256347", "name": "Catacombe di Santa Maria della Vita", "status": "missing", "osm_id": null}, "geometry": {"type": "Point", "coordinates": [14.25, 40.83333333]}}, {"type": "Feature", "properties": {"wikidata": "Q3657311", "name": "Cappella", "status": "done", "osm_id": "node/4210998158"}, "geometry": {"type": "Point", "coordinates": [14.066944444, 40.8]}}, {"type": "Feature", "properties": {"wikidata": "Q1255974", "name": "Chiesa di San Rocco", "status": "done", "osm_id": "way/1444375027"}, "geometry": {"type": "Point", "coordinates": [14.33404, 40.85804]}}, {"type": "Feature", "properties": {"wikidata": "Q1255659", "name": "chiesa di San Domenico Soriano", "status": "done", "osm_id": "way/270244027"}, "geometry": {"type": "Point", "coordinates": [14.24947, 40.84917]}}, {"type": "Feature", "properties": {"wikidata": "Q3650993", "name": "Calore", "status": "done", "osm_id": "node/675985193"}, "geometry": {"type": "Point", "coordinates": [14.916666666, 41.05]}}, {"type": "Feature", "properties": {"wikidata": "Q3621787", "name": "Arco di San Catello", "status": "missing", "osm_id": null}, "geometry": {"type": "Point", "coordinates": [14.4833, 40.7]}}, {"type": "Feature", "properties": {"wikidata": "Q3623653", "name": "Arola", "status": "done", "osm_id": "node/3110207850"}, "geometry": {"type": "Point", "coordinates": [14.438611111, 40.635277777]}}, {"type": "Feature", "properties": {"wikidata": "Q3625122", "name": "Asilo Filangieri", "status": "missing", "osm_id": null}, "geometry": {"type": "Point", "coordinates": [14.2565, 40.8504]}}, {"type": "Feature", "properties": {"wikidata": "Q1255708", "name": "chiesa di San Gennaro Spogliamorti", "status": "done", "osm_id": "way/1360887397"}, "geometry": {"type": "Point", "coordinates": [14.256361, 40.853417]}}, {"type": "Feature", "properties": {"wikidata": "Q3657496", "name": "cappella della Purit\u00e0", "status": "missing", "osm_id": null}, "geometry": {"type": "Point", "coordinates": [14.25683, 40.85144]}}, {"type": "Feature", "properties": {"wikidata": "Q3642878", "name": "Bosco dei Preti", "status": "missing", "osm_id": null}, "geometry": {"type": "Point", "coordinates": [14.927777777, 40.994166666]}}, {"type": "Feature", "properties": {"wikidata": "Q3637809", "name": "Bellizzi Irpino", "status": "done", "osm_id": "node/4455593829"}, "geometry": {"type": "Point", "coordinates": [14.79822, 40.89016]}}, {"type": "Feature", "properties": {"wikidata": "Q3889862", "name": "Palazzo Cioffi", "status": "missing", "osm_id": null}, "geometry": {"type": "Point", "coordinates": [14.237788, 40.833507]}}, {"type": "Feature", "properties": {"wikidata": "Q3886627", "name": "ospedale Sacro Cuore di Ges\u00f9", "status": "missing", "osm_id": null}, "geometry": {"type": "Point", "coordinates": [14.77369, 41.13602]}}, {"type": "Feature", "properties": {"wikidata": "Q3668673", "name": "chiesa del Santissimo Sacramento e San Michele Arcangelo", "status": "done", "osm_id": "way/558540909"}, "geometry": {"type": "Point", "coordinates": [14.3674, 40.78806]}}, {"type": "Feature", "properties": {"wikidata": "Q3886659", "name": "ospedale Maria delle Grazie", "status": "missing", "osm_id": null}, "geometry": {"type": "Point", "coordinates": [14.56558056, 41.27961111]}}, {"type": "Feature", "properties": {"wikidata": "Q3867858", "name": "Museo d'arte della fondazione Pagliara", "status": "missing", "osm_id": null}, "geometry": {"type": "Point", "coordinates": [14.2445, 40.8432]}}, {"type": "Feature", "properties": {"wikidata": "Q3890163", "name": "Palazzo Galli", "status": "missing", "osm_id": null}, "geometry": {"type": "Point", "coordinates": [14.250024, 40.830772]}}, {"type": "Feature", "properties": {"wikidata": "Q869033", "name": "chiesa Cor Jesu", "status": "done", "osm_id": "way/1334841511"}, "geometry": {"type": "Point", "coordinates": [14.2446, 40.8547]}}, {"type": "Feature", "properties": {"wikidata": "Q3669073", "name": "Museo laboratorio della civilt\u00e0 contadina \"Masseria Luce\"", "status": "done", "osm_id": "node/7494999517"}, "geometry": {"type": "Point", "coordinates": [14.29051, 40.89362]}}, {"type": "Feature", "properties": {"wikidata": "Q3885634", "name": "organi della chiesa di San Gregorio Armeno a Napoli", "status": "missing", "osm_id": null}, "geometry": {"type": "Point", "coordinates": [14.257636111, 40.850175]}}, {"type": "Feature", "properties": {"wikidata": "Q3889709", "name": "Palazzo Bottiglieri", "status": "missing", "osm_id": null}, "geometry": {"type": "Point", "coordinates": [14.240094, 40.85165]}}, {"type": "Feature", "properties": {"wikidata": "Q3889907", "name": "Palazzo Comunale", "status": "done", "osm_id": "relation/4132460"}, "geometry": {"type": "Point", "coordinates": [14.64181667, 40.74345]}}, {"type": "Feature", "properties": {"wikidata": "Q3668891", "name": "chiesa della Congregazione della Trinit\u00e0 dei Pellegrini", "status": "done", "osm_id": "way/1433790205"}, "geometry": {"type": "Point", "coordinates": [14.247188, 40.847344]}}, {"type": "Feature", "properties": {"wikidata": "Q3669260", "name": "chiesa delle Clarisse", "status": "done", "osm_id": "way/1425647393"}, "geometry": {"type": "Point", "coordinates": [14.25201, 40.84683]}}, {"type": "Feature", "properties": {"wikidata": "Q3880389", "name": "oasi Le Mortine", "status": "done", "osm_id": "way/180323632"}, "geometry": {"type": "Point", "coordinates": [14.097, 41.4693]}}, {"type": "Feature", "properties": {"wikidata": "Q3669492", "name": "chiesa di San Bartolomeo", "status": "missing", "osm_id": null}, "geometry": {"type": "Point", "coordinates": [14.3618, 41.07407]}}, {"type": "Feature", "properties": {"wikidata": "Q3668680", "name": "chiesa del Santissimo Salvatore e San Michele", "status": "missing", "osm_id": null}, "geometry": {"type": "Point", "coordinates": [14.488671, 40.692246]}}, {"type": "Feature", "properties": {"wikidata": "Q3668729", "name": "chiesa dell'Annunziata", "status": "missing", "osm_id": null}, "geometry": {"type": "Point", "coordinates": [14.77896111, 41.129375]}}, {"type": "Feature", "properties": {"wikidata": "Q3668890", "name": "chiesa della Congregazione della Sanit\u00e0", "status": "done", "osm_id": "way/555566699"}, "geometry": {"type": "Point", "coordinates": [14.54317222, 41.277875]}}, {"type": "Feature", "properties": {"wikidata": "Q3668808", "name": "chiesa dell'Immacolata e Sant'Anna al Vasto", "status": "done", "osm_id": "node/3418407330"}, "geometry": {"type": "Point", "coordinates": [14.27379167, 40.85653056]}}, {"type": "Feature", "properties": {"wikidata": "Q3668731", "name": "chiesa dell'Annunziata", "status": "missing", "osm_id": null}, "geometry": {"type": "Point", "coordinates": [13.940917, 41.03414]}}, {"type": "Feature", "properties": {"wikidata": "Q3889771", "name": "Palazzo Capomazza di Campolattaro", "status": "missing", "osm_id": null}, "geometry": {"type": "Point", "coordinates": [14.255941, 40.848846]}}, {"type": "Feature", "properties": {"wikidata": "Q3668745", "name": "chiesa dell'Annunziatella", "status": "done", "osm_id": "way/278279740"}, "geometry": {"type": "Point", "coordinates": [14.7573, 40.68]}}, {"type": "Feature", "properties": {"wikidata": "Q3669515", "name": "chiesa di San Bartolomeo", "status": "done", "osm_id": "way/248008315"}, "geometry": {"type": "Point", "coordinates": [14.25338, 40.84117]}}, {"type": "Feature", "properties": {"wikidata": "Q3668718", "name": "chiesa dell'Addolorata alla Pigna", "status": "done", "osm_id": "way/183993508"}, "geometry": {"type": "Point", "coordinates": [14.22032072, 40.85044661]}}, {"type": "Feature", "properties": {"wikidata": "Q3868018", "name": "Museo dell'attore napoletano", "status": "missing", "osm_id": null}, "geometry": {"type": "Point", "coordinates": [14.26335, 40.857]}}, {"type": "Feature", "properties": {"wikidata": "Q3668675", "name": "chiesa del Santissimo Salvatore", "status": "done", "osm_id": "way/189132666"}, "geometry": {"type": "Point", "coordinates": [14.781375, 41.12928889]}}, {"type": "Feature", "properties": {"wikidata": "Q3669195", "name": "Chiesa della Santissima Annunziata a Fonseca", "status": "done", "osm_id": "way/1437014536"}, "geometry": {"type": "Point", "coordinates": [14.24974, 40.85665]}}, {"type": "Feature", "properties": {"wikidata": "Q3889794", "name": "Palazzo Carafa d'Andria", "status": "done", "osm_id": "relation/3585187"}, "geometry": {"type": "Point", "coordinates": [14.257935, 40.84761]}}, {"type": "Feature", "properties": {"wikidata": "Q3885711", "name": "organo della basilica santuario del Carmine Maggiore a Napoli", "status": "missing", "osm_id": null}, "geometry": {"type": "Point", "coordinates": [14.262222222, 40.850833333]}}, {"type": "Feature", "properties": {"wikidata": "Q3889490", "name": "Palazzo Accinni", "status": "missing", "osm_id": null}, "geometry": {"type": "Point", "coordinates": [14.551618, 40.911681]}}, {"type": "Feature", "properties": {"wikidata": "Q3890116", "name": "Palazzo Filippo d'Angi\u00f2", "status": "done", "osm_id": "way/271193749"}, "geometry": {"type": "Point", "coordinates": [14.25649, 40.85065]}}, {"type": "Feature", "properties": {"wikidata": "Q3889719", "name": "Palazzo Brancaccio", "status": "done", "osm_id": "way/267250703"}, "geometry": {"type": "Point", "coordinates": [14.255766, 40.848093]}}, {"type": "Feature", "properties": {"wikidata": "Q3970663", "name": "stazione di Riardo-Pietramelara", "status": "done", "osm_id": "node/1612963803"}, "geometry": {"type": "Point", "coordinates": [14.125, 41.2652]}}, {"type": "Feature", "properties": {"wikidata": "Q3970863", "name": "stazione di Sant'Agnello", "status": "done", "osm_id": "node/10790148919"}, "geometry": {"type": "Point", "coordinates": [14.3979, 40.6311]}}, {"type": "Feature", "properties": {"wikidata": "Q3889947", "name": "Palazzo Costantino alla Costigliola", "status": "done", "osm_id": "relation/7892988"}, "geometry": {"type": "Point", "coordinates": [14.24705, 40.852653]}}, {"type": "Feature", "properties": {"wikidata": "Q3668750", "name": "chiesa dell'Arciconfraternita della Santissima Resurrezione", "status": "done", "osm_id": "node/3501333157"}, "geometry": {"type": "Point", "coordinates": [14.243336, 40.835776]}}, {"type": "Feature", "properties": {"wikidata": "Q3889803", "name": "Palazzo Carizza", "status": "missing", "osm_id": null}, "geometry": {"type": "Point", "coordinates": [14.56224, 41.286997]}}, {"type": "Feature", "properties": {"wikidata": "Q3889795", "name": "Palazzo Carafa di Belvedere", "status": "missing", "osm_id": null}, "geometry": {"type": "Point", "coordinates": [14.25402, 40.8471]}}, {"type": "Feature", "properties": {"wikidata": "Q3669351", "name": "chiesa di Maria Santissima del Carmine", "status": "done", "osm_id": "way/414420463"}, "geometry": {"type": "Point", "coordinates": [14.238972, 40.858694]}}, {"type": "Feature", "properties": {"wikidata": "Q3890277", "name": "Palazzo Guerritore Broya", "status": "done", "osm_id": "way/273448018"}, "geometry": {"type": "Point", "coordinates": [14.63988333, 40.74583333]}}, {"type": "Feature", "properties": {"wikidata": "Q3668747", "name": "Chiesa dell'Architiello", "status": "done", "osm_id": "way/1437015451"}, "geometry": {"type": "Point", "coordinates": [14.22342, 40.8487]}}, {"type": "Feature", "properties": {"wikidata": "Q3868001", "name": "Museo dell'Opera Pia Purgatorio ad Arco", "status": "done", "osm_id": "way/270098547"}, "geometry": {"type": "Point", "coordinates": [14.25565, 40.85082]}}, {"type": "Feature", "properties": {"wikidata": "Q3889879", "name": "Palazzo Colonna", "status": "missing", "osm_id": null}, "geometry": {"type": "Point", "coordinates": [14.256461, 40.846249]}}, {"type": "Feature", "properties": {"wikidata": "Q3669149", "name": "chiesa della Santissima Annunziata", "status": "missing", "osm_id": null}, "geometry": {"type": "Point", "coordinates": [14.56731, 40.62501]}}, {"type": "Feature", "properties": {"wikidata": "Q922615", "name": "Complesso di Santa Maria dei Monti", "status": "missing", "osm_id": null}, "geometry": {"type": "Point", "coordinates": [14.2664, 40.8791]}}, {"type": "Feature", "properties": {"wikidata": "Q3889793", "name": "Palazzo Caracciolo di Torella", "status": "done", "osm_id": "way/411094676"}, "geometry": {"type": "Point", "coordinates": [14.238837, 40.835428]}}, {"type": "Feature", "properties": {"wikidata": "Q3889691", "name": "Palazzo Bonifacio a Portanova", "status": "missing", "osm_id": null}, "geometry": {"type": "Point", "coordinates": [14.259362, 40.847118]}}, {"type": "Feature", "properties": {"wikidata": "Q3669452", "name": "Chiesa di Palazzo Sanfelice", "status": "done", "osm_id": "node/13226587683"}, "geometry": {"type": "Point", "coordinates": [14.2514, 40.85758]}}, {"type": "Feature", "properties": {"wikidata": "Q3889786", "name": "Palazzo Caracciolo di Forino", "status": "missing", "osm_id": null}, "geometry": {"type": "Point", "coordinates": [14.261477, 40.857673]}}, {"type": "Feature", "properties": {"wikidata": "Q3889788", "name": "Palazzo Caracciolo di Gioiosa", "status": "done", "osm_id": "relation/3817962"}, "geometry": {"type": "Point", "coordinates": [14.260026, 40.85212]}}, {"type": "Feature", "properties": {"wikidata": "Q3668748", "name": "chiesa dell'Arciconfraternita dei Santissimi Apostoli Pietro e Paolo Basacoena", "status": "done", "osm_id": "way/1335004893"}, "geometry": {"type": "Point", "coordinates": [14.24601, 40.84452]}}, {"type": "Feature", "properties": {"wikidata": "Q3890153", "name": "Palazzo Gabola", "status": "done", "osm_id": "way/273459209"}, "geometry": {"type": "Point", "coordinates": [14.64216111, 40.74299444]}}, {"type": "Feature", "properties": {"wikidata": "Q3971133", "name": "stazione di Tora-Presenzano", "status": "done", "osm_id": "way/958885303"}, "geometry": {"type": "Point", "coordinates": [14.045147222, 41.358880555]}}, {"type": "Feature", "properties": {"wikidata": "Q3868450", "name": "Museo provinciale della ceramica", "status": "done", "osm_id": "way/160808930"}, "geometry": {"type": "Point", "coordinates": [14.718700509, 40.670498561]}}, {"type": "Feature", "properties": {"wikidata": "Q3669451", "name": "chiesa di Palazzo Troiano Spinelli di Laurino", "status": "done", "osm_id": "node/13104298809"}, "geometry": {"type": "Point", "coordinates": [14.255567, 40.850115]}}, {"type": "Feature", "properties": {"wikidata": "Q3868191", "name": "Museo di anatomia veterinaria", "status": "missing", "osm_id": null}, "geometry": {"type": "Point", "coordinates": [14.25883, 40.86195]}}, {"type": "Feature", "properties": {"wikidata": "Q3886614", "name": "ospedale Monaldi", "status": "done", "osm_id": "way/37330008"}, "geometry": {"type": "Point", "coordinates": [14.210043, 40.870138]}}, {"type": "Feature", "properties": {"wikidata": "Q3671166", "name": "chiesa di San Matteo Maggiore al Lavinaio", "status": "missing", "osm_id": null}, "geometry": {"type": "Point", "coordinates": [14.2669, 40.8494]}}, {"type": "Feature", "properties": {"wikidata": "Q3671632", "name": "chiesa di San Pietro", "status": "missing", "osm_id": null}, "geometry": {"type": "Point", "coordinates": [14.2477718, 40.8282715]}}, {"type": "Feature", "properties": {"wikidata": "Q3670420", "name": "chiesa di San Giovanni Battista e Sant'Alfonso", "status": "done", "osm_id": "way/1310634006"}, "geometry": {"type": "Point", "coordinates": [14.23038, 40.89036]}}, {"type": "Feature", "properties": {"wikidata": "Q3670884", "name": "chiesa di San Lorenzo", "status": "done", "osm_id": "way/866351303"}, "geometry": {"type": "Point", "coordinates": [14.54318333, 41.27725556]}}, {"type": "Feature", "properties": {"wikidata": "Q3672476", "name": "chiesa di Sant'Andrea de Lavina", "status": "done", "osm_id": "way/274366477"}, "geometry": {"type": "Point", "coordinates": [14.7557, 40.6799]}}, {"type": "Feature", "properties": {"wikidata": "Q3670448", "name": "chiesa di San Giovanni Battista", "status": "missing", "osm_id": null}, "geometry": {"type": "Point", "coordinates": [14.361917, 41.072753]}}, {"type": "Feature", "properties": {"wikidata": "Q3672098", "name": "chiesa di San Tammaro vescovo", "status": "missing", "osm_id": null}, "geometry": {"type": "Point", "coordinates": [14.228222, 41.075947]}}, {"type": "Feature", "properties": {"wikidata": "Q3671385", "name": "chiesa di San Modesto", "status": "done", "osm_id": "way/272307453"}, "geometry": {"type": "Point", "coordinates": [14.770611, 41.124308]}}, {"type": "Feature", "properties": {"wikidata": "Q3672813", "name": "chiesa di Sant'Eustachio", "status": "done", "osm_id": "way/734894257"}, "geometry": {"type": "Point", "coordinates": [14.495943, 40.688367]}}, {"type": "Feature", "properties": {"wikidata": "Q3672740", "name": "chiesa di Sant'Arcangelo a Baiano", "status": "done", "osm_id": "way/183749368"}, "geometry": {"type": "Point", "coordinates": [14.2616, 40.8498]}}, {"type": "Feature", "properties": {"wikidata": "Q3671711", "name": "chiesa di San Pietro Apostolo a Tovere", "status": "missing", "osm_id": null}, "geometry": {"type": "Point", "coordinates": [14.565333, 40.620222]}}, {"type": "Feature", "properties": {"wikidata": "Q3672278", "name": "chiesa di Sant'Agostino", "status": "missing", "osm_id": null}, "geometry": {"type": "Point", "coordinates": [14.780225, 41.13213611]}}, {"type": "Feature", "properties": {"wikidata": "Q3672719", "name": "chiesa di Sant'Antonio di Padova a Carbonelli", "status": "done", "osm_id": "way/1335184772"}, "geometry": {"type": "Point", "coordinates": [14.258722, 40.894472]}}, {"type": "Feature", "properties": {"wikidata": "Q3669909", "name": "chiesa di San Donato", "status": "done", "osm_id": "way/228486758"}, "geometry": {"type": "Point", "coordinates": [14.77103056, 41.13268056]}}, {"type": "Feature", "properties": {"wikidata": "Q3670359", "name": "chiesa di San Giovanni", "status": "missing", "osm_id": null}, "geometry": {"type": "Point", "coordinates": [14.56701111, 41.29165556]}}, {"type": "Feature", "properties": {"wikidata": "Q3670392", "name": "chiesa di San Giovanni Battista", "status": "missing", "osm_id": null}, "geometry": {"type": "Point", "coordinates": [14.21514, 40.89204]}}, {"type": "Feature", "properties": {"wikidata": "Q3670611", "name": "chiesa di San Giuseppe", "status": "missing", "osm_id": null}, "geometry": {"type": "Point", "coordinates": [14.564414, 41.287364]}}, {"type": "Feature", "properties": {"wikidata": "Q3671884", "name": "chiesa di San Rocco", "status": "missing", "osm_id": null}, "geometry": {"type": "Point", "coordinates": [14.277306, 40.939833]}}, {"type": "Feature", "properties": {"wikidata": "Q3669608", "name": "chiesa di San Benedetto", "status": "done", "osm_id": "way/275036771"}, "geometry": {"type": "Point", "coordinates": [14.7626, 40.6794]}}, {"type": "Feature", "properties": {"wikidata": "Q3670607", "name": "chiesa di San Giuseppe", "status": "missing", "osm_id": null}, "geometry": {"type": "Point", "coordinates": [14.36198, 41.07273]}}, {"type": "Feature", "properties": {"wikidata": "Q3672789", "name": "chiesa di Sant'Erasmo ai Granili", "status": "done", "osm_id": "way/331672702"}, "geometry": {"type": "Point", "coordinates": [14.28347, 40.84457]}}, {"type": "Feature", "properties": {"wikidata": "Q3902518", "name": "Picarelli", "status": "missing", "osm_id": null}, "geometry": {"type": "Point", "coordinates": [14.794166666, 40.942777777]}}, {"type": "Feature", "properties": {"wikidata": "Q3902263", "name": "piazza Monteoliveto", "status": "done", "osm_id": "relation/3619415"}, "geometry": {"type": "Point", "coordinates": [14.25083, 40.8454]}}, {"type": "Feature", "properties": {"wikidata": "Q3897407", "name": "Passo della Sentinella", "status": "done", "osm_id": "node/415449907"}, "geometry": {"type": "Point", "coordinates": [15.418174, 40.417142]}}, {"type": "Feature", "properties": {"wikidata": "Q3902226", "name": "Piazza Grande", "status": "done", "osm_id": "way/649721043"}, "geometry": {"type": "Point", "coordinates": [14.26703, 40.8723]}}, {"type": "Feature", "properties": {"wikidata": "Q3933934", "name": "Reviglione", "status": "done", "osm_id": "node/4446517389"}, "geometry": {"type": "Point", "coordinates": [14.436944444, 40.8725]}}, {"type": "Feature", "properties": {"wikidata": "Q3902050", "name": "Pianodardine", "status": "done", "osm_id": "node/3680254863"}, "geometry": {"type": "Point", "coordinates": [14.818055555, 40.936388888]}}, {"type": "Feature", "properties": {"wikidata": "Q3908039", "name": "ponte Valentino", "status": "done", "osm_id": "way/296306956"}, "geometry": {"type": "Point", "coordinates": [14.830439, 41.145644]}}, {"type": "Feature", "properties": {"wikidata": "Q3902266", "name": "piazza Nazionale", "status": "missing", "osm_id": null}, "geometry": {"type": "Point", "coordinates": [14.273554, 40.858276]}}, {"type": "Feature", "properties": {"wikidata": "Q3932232", "name": "Reinello", "status": "missing", "osm_id": null}, "geometry": {"type": "Point", "coordinates": [14.814044, 41.254016]}}, {"type": "Feature", "properties": {"wikidata": "Q3908153", "name": "Ponte di Santa Barbara", "status": "done", "osm_id": "way/272307487"}, "geometry": {"type": "Point", "coordinates": [14.77578, 41.12536]}}, {"type": "Feature", "properties": {"wikidata": "Q3933811", "name": "Rettifilo/Vannulo", "status": "done", "osm_id": "node/1131391418"}, "geometry": {"type": "Point", "coordinates": [15.024444444, 40.453055555]}}, {"type": "Feature", "properties": {"wikidata": "Q3968925", "name": "stazione di Atena Lucana", "status": "missing", "osm_id": null}, "geometry": {"type": "Point", "coordinates": [15.536146, 40.456679]}}, {"type": "Feature", "properties": {"wikidata": "Q3966755", "name": "Spinazzo/Varco Cilentano", "status": "done", "osm_id": "node/1131395892"}, "geometry": {"type": "Point", "coordinates": [15.024722222, 40.409166666]}}, {"type": "Feature", "properties": {"wikidata": "Q3967877", "name": "stadio San Ciro", "status": "done", "osm_id": "way/436159432"}, "geometry": {"type": "Point", "coordinates": [14.3343, 40.8237]}}, {"type": "Feature", "properties": {"wikidata": "Q3968432", "name": "Starza", "status": "done", "osm_id": "node/9116757284"}, "geometry": {"type": "Point", "coordinates": [14.4, 40.866666666]}}, {"type": "Feature", "properties": {"wikidata": "Q3962374", "name": "Sito di trasferenza di via Brin", "status": "missing", "osm_id": null}, "geometry": {"type": "Point", "coordinates": [14.282649, 40.847937]}}, {"type": "Feature", "properties": {"wikidata": "Q3967669", "name": "Stabilimento Redaelli di Napoli", "status": "missing", "osm_id": null}, "geometry": {"type": "Point", "coordinates": [14.271623, 40.865838]}}, {"type": "Feature", "properties": {"wikidata": "Q3962120", "name": "Sisp di Pianodardine", "status": "missing", "osm_id": null}, "geometry": {"type": "Point", "coordinates": [14.827759, 40.948334]}}, {"type": "Feature", "properties": {"wikidata": "Q3967749", "name": "stadio Augusto Bisceglia", "status": "done", "osm_id": "way/335850398"}, "geometry": {"type": "Point", "coordinates": [14.204583333, 40.984722222]}}, {"type": "Feature", "properties": {"wikidata": "Q3967822", "name": "stadio Jos\u00e9 Guimar\u00e3es Dirceu", "status": "missing", "osm_id": null}, "geometry": {"type": "Point", "coordinates": [15.05632, 40.60966]}}, {"type": "Feature", "properties": {"wikidata": "Q3969319", "name": "stazione di Castelluccio Cosentino", "status": "done", "osm_id": "node/12050760034"}, "geometry": {"type": "Point", "coordinates": [15.348638888, 40.580888888]}}, {"type": "Feature", "properties": {"wikidata": "Q3967875", "name": "stadio Sabatino De Rosa", "status": "missing", "osm_id": null}, "geometry": {"type": "Point", "coordinates": [14.26765, 40.90479]}}, {"type": "Feature", "properties": {"wikidata": "Q3967910", "name": "stadio comunale 28 settembre 1943", "status": "done", "osm_id": "way/23161040"}, "geometry": {"type": "Point", "coordinates": [14.5175, 40.7583]}}, {"type": "Feature", "properties": {"wikidata": "Q3949793", "name": "santuario della Madonna delle Grazie", "status": "missing", "osm_id": null}, "geometry": {"type": "Point", "coordinates": [14.795623, 40.920857]}}, {"type": "Feature", "properties": {"wikidata": "Q3950037", "name": "santuario di Sant'Anna", "status": "done", "osm_id": "way/734626185"}, "geometry": {"type": "Point", "coordinates": [14.54535, 40.70447]}}, {"type": "Feature", "properties": {"wikidata": "Q3949614", "name": "santuario del Sacro Cuore", "status": "done", "osm_id": "way/734891754"}, "geometry": {"type": "Point", "coordinates": [14.485397, 40.692532]}}, {"type": "Feature", "properties": {"wikidata": "Q3951760", "name": "scavi archeologici del duomo di Napoli", "status": "missing", "osm_id": null}, "geometry": {"type": "Point", "coordinates": [14.259322014, 40.852796953]}}, {"type": "Feature", "properties": {"wikidata": "Q3937284", "name": "ritiro Regina del Santissimo Rosario Refugium Peccatorum", "status": "missing", "osm_id": null}, "geometry": {"type": "Point", "coordinates": [14.26392, 40.85522]}}, {"type": "Feature", "properties": {"wikidata": "Q3949883", "name": "santuario di Leporano", "status": "missing", "osm_id": null}, "geometry": {"type": "Point", "coordinates": [14.223972, 41.178722]}}, {"type": "Feature", "properties": {"wikidata": "Q3945739", "name": "Salone Margherita", "status": "missing", "osm_id": null}, "geometry": {"type": "Point", "coordinates": [14.249369, 40.839074]}}, {"type": "Feature", "properties": {"wikidata": "Q3940571", "name": "Romani", "status": "done", "osm_id": "node/9116815491"}, "geometry": {"type": "Point", "coordinates": [14.4, 40.866666666]}}, {"type": "Feature", "properties": {"wikidata": "Q3949635", "name": "santuario dell'Immacolata Concezione", "status": "missing", "osm_id": null}, "geometry": {"type": "Point", "coordinates": [14.27193, 40.9407]}}, {"type": "Feature", "properties": {"wikidata": "Q3952030", "name": "Schiava", "status": "done", "osm_id": "node/5215247835"}, "geometry": {"type": "Point", "coordinates": [14.566666666, 40.95]}}, {"type": "Feature", "properties": {"wikidata": "Q3937285", "name": "ritiro delle Teresiane di Torre del Greco", "status": "missing", "osm_id": null}, "geometry": {"type": "Point", "coordinates": [14.247302, 40.854767]}}, {"type": "Feature", "properties": {"wikidata": "Q3948634", "name": "Sant'Agata Irpina", "status": "done", "osm_id": "node/2608228183"}, "geometry": {"type": "Point", "coordinates": [14.820704, 40.834362]}}, {"type": "Feature", "properties": {"wikidata": "Q3948724", "name": "Sant'Angelo in Macerata", "status": "missing", "osm_id": null}, "geometry": {"type": "Point", "coordinates": [14.75, 40.783333333]}}, {"type": "Feature", "properties": {"wikidata": "Q3949795", "name": "santuario della Madonna delle Grazie", "status": "done", "osm_id": "way/682235674"}, "geometry": {"type": "Point", "coordinates": [14.57214722, 41.28906389]}}, {"type": "Feature", "properties": {"wikidata": "Q3950023", "name": "santuario di San Michele Arcangelo al Monte Faito", "status": "done", "osm_id": "way/311133525"}, "geometry": {"type": "Point", "coordinates": [14.49846, 40.658321]}}, {"type": "Feature", "properties": {"wikidata": "Q3891223", "name": "Palazzo dei Telefoni", "status": "done", "osm_id": "relation/3342276"}, "geometry": {"type": "Point", "coordinates": [14.25464, 40.842512]}}, {"type": "Feature", "properties": {"wikidata": "Q3891533", "name": "palazzo delle Poste", "status": "done", "osm_id": "way/109373058"}, "geometry": {"type": "Point", "coordinates": [14.76476, 40.67616]}}, {"type": "Feature", "properties": {"wikidata": "Q3891593", "name": "palazzo di Magnocavallo", "status": "missing", "osm_id": null}, "geometry": {"type": "Point", "coordinates": [14.245886, 40.844414]}}, {"type": "Feature", "properties": {"wikidata": "Q3891451", "name": "Palazzo della Fondiaria", "status": "missing", "osm_id": null}, "geometry": {"type": "Point", "coordinates": [14.234467, 40.836858]}}, {"type": "Feature", "properties": {"wikidata": "Q3891449", "name": "Palazzo della Facolt\u00e0 d'Ingegneria", "status": "done", "osm_id": "relation/3061428"}, "geometry": {"type": "Point", "coordinates": [14.194585, 40.824762]}}, {"type": "Feature", "properties": {"wikidata": "Q3891416", "name": "Palazzo dell'Universit\u00e0 degli Studi Federico II", "status": "missing", "osm_id": null}, "geometry": {"type": "Point", "coordinates": [14.25772, 40.845325]}}, {"type": "Feature", "properties": {"wikidata": "Q3891292", "name": "Palazzo del Governo", "status": "done", "osm_id": "relation/3357758"}, "geometry": {"type": "Point", "coordinates": [14.78166111, 41.12966389]}}, {"type": "Feature", "properties": {"wikidata": "Q3891244", "name": "Palazzo del Boschetto", "status": "missing", "osm_id": null}, "geometry": {"type": "Point", "coordinates": [14.32105, 41.07585]}}, {"type": "Feature", "properties": {"wikidata": "Q3891150", "name": "Palazzo d'Avossa", "status": "done", "osm_id": "way/280437570"}, "geometry": {"type": "Point", "coordinates": [14.75852, 40.67965]}}, {"type": "Feature", "properties": {"wikidata": "Q3891481", "name": "Palazzo Pacanowski", "status": "missing", "osm_id": null}, "geometry": {"type": "Point", "coordinates": [14.245077, 40.832225]}}, {"type": "Feature", "properties": {"wikidata": "Q3891221", "name": "Palazzo dei Telefoni", "status": "done", "osm_id": "way/260319040"}, "geometry": {"type": "Point", "coordinates": [14.268096, 40.85079]}}, {"type": "Feature", "properties": {"wikidata": "Q3891030", "name": "Palazzo Ungaro", "status": "missing", "osm_id": null}, "geometry": {"type": "Point", "coordinates": [14.558421, 41.283558]}}, {"type": "Feature", "properties": {"wikidata": "Q3891641", "name": "Palazzo in via Carbonara 52", "status": "missing", "osm_id": null}, "geometry": {"type": "Point", "coordinates": [14.262324, 40.855056]}}, {"type": "Feature", "properties": {"wikidata": "Q3891311", "name": "Palazzo del Mediterraneo", "status": "missing", "osm_id": null}, "geometry": {"type": "Point", "coordinates": [14.260192, 40.845275]}}, {"type": "Feature", "properties": {"wikidata": "Q3891019", "name": "Palazzo Troise", "status": "done", "osm_id": "relation/1191653"}, "geometry": {"type": "Point", "coordinates": [14.2518, 40.843183]}}, {"type": "Feature", "properties": {"wikidata": "Q3891637", "name": "Palazzo in via Atri 33", "status": "missing", "osm_id": null}, "geometry": {"type": "Point", "coordinates": [14.25467, 40.851081]}}, {"type": "Feature", "properties": {"wikidata": "Q3891061", "name": "Palazzo Vescovile", "status": "done", "osm_id": "relation/9319727"}, "geometry": {"type": "Point", "coordinates": [14.55488611, 41.28245833]}}, {"type": "Feature", "properties": {"wikidata": "Q3891260", "name": "Palazzo del Circolo della Stampa", "status": "missing", "osm_id": null}, "geometry": {"type": "Point", "coordinates": [14.2347, 40.8329]}}, {"type": "Feature", "properties": {"wikidata": "Q3891142", "name": "Palazzo d'Amaro", "status": "missing", "osm_id": null}, "geometry": {"type": "Point", "coordinates": [14.459928, 40.773855]}}, {"type": "Feature", "properties": {"wikidata": "Q18436201", "name": "Pagliara", "status": "done", "osm_id": "way/445261039"}, "geometry": {"type": "Point", "coordinates": [14.79277, 41.0653]}}, {"type": "Feature", "properties": {"wikidata": "Q3971954", "name": "stazione meteorologica di Ravello", "status": "missing", "osm_id": null}, "geometry": {"type": "Point", "coordinates": [14.61, 40.65]}}, {"type": "Feature", "properties": {"wikidata": "Q3995420", "name": "Torre del II Policlinico", "status": "done", "osm_id": "way/301070193"}, "geometry": {"type": "Point", "coordinates": [14.21915, 40.86983]}}, {"type": "Feature", "properties": {"wikidata": "Q3971824", "name": "stazione meteorologica di Napoli Porto", "status": "missing", "osm_id": null}, "geometry": {"type": "Point", "coordinates": [14.25, 40.85]}}, {"type": "Feature", "properties": {"wikidata": "Q3995157", "name": "Torre Cervati", "status": "done", "osm_id": "node/12816523625"}, "geometry": {"type": "Point", "coordinates": [14.210031, 40.835332]}}, {"type": "Feature", "properties": {"wikidata": "Q3995732", "name": "Torri Saverio e Francesco", "status": "done", "osm_id": "way/334304056"}, "geometry": {"type": "Point", "coordinates": [14.282141, 40.856362]}}, {"type": "Feature", "properties": {"wikidata": "Q3980567", "name": "Tamaricchio", "status": "missing", "osm_id": null}, "geometry": {"type": "Point", "coordinates": [14.886432, 41.260205]}}, {"type": "Feature", "properties": {"wikidata": "Q3983809", "name": "tenuta degli Astroni", "status": "missing", "osm_id": null}, "geometry": {"type": "Point", "coordinates": [14.161618, 40.845162]}}, {"type": "Feature", "properties": {"wikidata": "Q3971561", "name": "stazione meteorologica di Castellammare di Stabia", "status": "missing", "osm_id": null}, "geometry": {"type": "Point", "coordinates": [14.49, 40.7]}}, {"type": "Feature", "properties": {"wikidata": "Q3973607", "name": "Stir di Santa Maria Capua Vetere", "status": "done", "osm_id": "way/231314992"}, "geometry": {"type": "Point", "coordinates": [14.239973, 41.048304]}}, {"type": "Feature", "properties": {"wikidata": "Q3995114", "name": "Torre/Licinella", "status": "done", "osm_id": "node/1131397567"}, "geometry": {"type": "Point", "coordinates": [15.001388888, 40.410833333]}}, {"type": "Feature", "properties": {"wikidata": "Q3995116", "name": "Torre", "status": "missing", "osm_id": null}, "geometry": {"type": "Point", "coordinates": [14.633333, 40.65]}}, {"type": "Feature", "properties": {"wikidata": "Q3971433", "name": "stazione meteorologica di Amalfi", "status": "missing", "osm_id": null}, "geometry": {"type": "Point", "coordinates": [14.6, 40.63]}}, {"type": "Feature", "properties": {"wikidata": "Q3984489", "name": "Termovalorizzatore di Acerra", "status": "done", "osm_id": "way/248690433"}, "geometry": {"type": "Point", "coordinates": [14.384058, 40.978473]}}, {"type": "Feature", "properties": {"wikidata": "Q3973605", "name": "Stir di Caivano", "status": "missing", "osm_id": null}, "geometry": {"type": "Point", "coordinates": [14.299128, 40.99616]}}, {"type": "Feature", "properties": {"wikidata": "Q3973608", "name": "Stir di Casalduni", "status": "missing", "osm_id": null}, "geometry": {"type": "Point", "coordinates": [14.72605, 41.26484]}}, {"type": "Feature", "properties": {"wikidata": "Q3980632", "name": "Tammarecchia", "status": "done", "osm_id": "way/197677161"}, "geometry": {"type": "Point", "coordinates": [14.795811, 41.271031]}}, {"type": "Feature", "properties": {"wikidata": "Q4000186", "name": "Tufara Valle", "status": "done", "osm_id": "node/2684584081"}, "geometry": {"type": "Point", "coordinates": [14.7039717, 41.0557298]}}, {"type": "Feature", "properties": {"wikidata": "Q3993695", "name": "Torca", "status": "done", "osm_id": "node/716413703"}, "geometry": {"type": "Point", "coordinates": [14.383333333, 40.6]}}, {"type": "Feature", "properties": {"wikidata": "Q3995721", "name": "Torri ENEL", "status": "done", "osm_id": "way/332302620"}, "geometry": {"type": "Point", "coordinates": [14.277267, 40.856471]}}, {"type": "Feature", "properties": {"wikidata": "Q3995748", "name": "torri del Banco di Napoli", "status": "done", "osm_id": "relation/10244377"}, "geometry": {"type": "Point", "coordinates": [14.279538, 40.855964]}}, {"type": "Feature", "properties": {"wikidata": "Q3668391", "name": "chiesa dei Santi Prisco e Agnello", "status": "missing", "osm_id": null}, "geometry": {"type": "Point", "coordinates": [14.396111, 40.629778]}}, {"type": "Feature", "properties": {"wikidata": "Q3668373", "name": "chiesa dei Santi Pietro e Paolo", "status": "done", "osm_id": "way/259064546"}, "geometry": {"type": "Point", "coordinates": [14.195361, 40.847806]}}, {"type": "Feature", "properties": {"wikidata": "Q3667892", "name": "chiesa di Regina Paradisi", "status": "done", "osm_id": "way/737161423"}, "geometry": {"type": "Point", "coordinates": [14.19122, 40.8686]}}, {"type": "Feature", "properties": {"wikidata": "Q3658505", "name": "Carditello", "status": "missing", "osm_id": null}, "geometry": {"type": "Point", "coordinates": [14.287, 40.937]}}, {"type": "Feature", "properties": {"wikidata": "Q3662423", "name": "Castello del Lago", "status": "done", "osm_id": "node/1886519794"}, "geometry": {"type": "Point", "coordinates": [14.920933333, 41.073830555]}}, {"type": "Feature", "properties": {"wikidata": "Q3661528", "name": "Cascano", "status": "done", "osm_id": "node/1371850060"}, "geometry": {"type": "Point", "coordinates": [13.96927, 41.23232]}}, {"type": "Feature", "properties": {"wikidata": "Q3668125", "name": "chiesa dei Santi Crispino e Crispiniano", "status": "done", "osm_id": "way/295362469"}, "geometry": {"type": "Point", "coordinates": [14.26592, 40.8515]}}, {"type": "Feature", "properties": {"wikidata": "Q3667875", "name": "chiesa Madre San Gregorio Magno", "status": "missing", "osm_id": null}, "geometry": {"type": "Point", "coordinates": [15.405167, 40.655944]}}, {"type": "Feature", "properties": {"wikidata": "Q3661692", "name": "caserma Vittoria", "status": "done", "osm_id": "way/341241215"}, "geometry": {"type": "Point", "coordinates": [14.24323056, 40.83256111]}}, {"type": "Feature", "properties": {"wikidata": "Q3661719", "name": "caserma di Cavalleria Borbonica", "status": "done", "osm_id": "relation/5940491"}, "geometry": {"type": "Point", "coordinates": [14.2769, 40.846168]}}, {"type": "Feature", "properties": {"wikidata": "Q1824654", "name": "Scanzano", "status": "done", "osm_id": "node/3461490765"}, "geometry": {"type": "Point", "coordinates": [14.483333333, 40.7]}}, {"type": "Feature", "properties": {"wikidata": "Q1817283", "name": "San Carlo", "status": "done", "osm_id": "node/3281010228"}, "geometry": {"type": "Point", "coordinates": [13.91794, 41.31077]}}, {"type": "Feature", "properties": {"wikidata": "Q1460943", "name": "Casa del Volto Santo", "status": "done", "osm_id": "way/414637229"}, "geometry": {"type": "Point", "coordinates": [14.2565, 40.8684]}}, {"type": "Feature", "properties": {"wikidata": "Q1292401", "name": "complesso monastico di Suor Orsola Benincasa", "status": "missing", "osm_id": null}, "geometry": {"type": "Point", "coordinates": [14.242975, 40.841062]}}, {"type": "Feature", "properties": {"wikidata": "Q4012525", "name": "Villa Savarese", "status": "missing", "osm_id": null}, "geometry": {"type": "Point", "coordinates": [14.213194, 40.824353]}}, {"type": "Feature", "properties": {"wikidata": "Q4012214", "name": "Villa Lignola", "status": "missing", "osm_id": null}, "geometry": {"type": "Point", "coordinates": [14.335678, 40.826796]}}, {"type": "Feature", "properties": {"wikidata": "Q4012455", "name": "Villa Raiola Scarinzi", "status": "missing", "osm_id": null}, "geometry": {"type": "Point", "coordinates": [14.312129, 40.829802]}}, {"type": "Feature", "properties": {"wikidata": "Q4012208", "name": "Villa Leonetti", "status": "missing", "osm_id": null}, "geometry": {"type": "Point", "coordinates": [14.218318, 40.838139]}}, {"type": "Feature", "properties": {"wikidata": "Q4011887", "name": "Villa Chierchia", "status": "missing", "osm_id": null}, "geometry": {"type": "Point", "coordinates": [14.216877, 40.822367]}}, {"type": "Feature", "properties": {"wikidata": "Q4012405", "name": "Villa Patrizi", "status": "done", "osm_id": "way/414846191"}, "geometry": {"type": "Point", "coordinates": [14.211305, 40.835225]}}, {"type": "Feature", "properties": {"wikidata": "Q4012096", "name": "Villa Il Capriccio", "status": "missing", "osm_id": null}, "geometry": {"type": "Point", "coordinates": [14.246746, 40.873637]}}, {"type": "Feature", "properties": {"wikidata": "Q4011892", "name": "Villa Cilento", "status": "missing", "osm_id": null}, "geometry": {"type": "Point", "coordinates": [14.196916, 40.806318]}}, {"type": "Feature", "properties": {"wikidata": "Q4012006", "name": "Villa Forquet", "status": "missing", "osm_id": null}, "geometry": {"type": "Point", "coordinates": [14.238566, 40.866512]}}, {"type": "Feature", "properties": {"wikidata": "Q4012633", "name": "Villa Vittoria", "status": "missing", "osm_id": null}, "geometry": {"type": "Point", "coordinates": [14.311144, 40.830353]}}, {"type": "Feature", "properties": {"wikidata": "Q4011862", "name": "Villa Carafa di Percuoco", "status": "missing", "osm_id": null}, "geometry": {"type": "Point", "coordinates": [14.335376, 40.828371]}}, {"type": "Feature", "properties": {"wikidata": "Q4012366", "name": "Villa Oro", "status": "missing", "osm_id": null}, "geometry": {"type": "Point", "coordinates": [14.218033, 40.823827]}}, {"type": "Feature", "properties": {"wikidata": "Q4012640", "name": "Villa Volpicelli", "status": "missing", "osm_id": null}, "geometry": {"type": "Point", "coordinates": [14.318247, 40.824572]}}, {"type": "Feature", "properties": {"wikidata": "Q4012172", "name": "Villa La Riccia", "status": "missing", "osm_id": null}, "geometry": {"type": "Point", "coordinates": [14.2557, 40.862511]}}, {"type": "Feature", "properties": {"wikidata": "Q4012207", "name": "Villa Leone", "status": "missing", "osm_id": null}, "geometry": {"type": "Point", "coordinates": [14.331826, 40.826548]}}, {"type": "Feature", "properties": {"wikidata": "Q4011995", "name": "Villa Ferri", "status": "missing", "osm_id": null}, "geometry": {"type": "Point", "coordinates": [14.215211, 40.825117]}}, {"type": "Feature", "properties": {"wikidata": "Q4012347", "name": "Villa Nasti", "status": "missing", "osm_id": null}, "geometry": {"type": "Point", "coordinates": [14.32382, 40.83847]}}, {"type": "Feature", "properties": {"wikidata": "Q4012520", "name": "Villa Sant'Anna", "status": "missing", "osm_id": null}, "geometry": {"type": "Point", "coordinates": [14.321666, 40.847075]}}, {"type": "Feature", "properties": {"wikidata": "Q4011853", "name": "Villa Campbell", "status": "missing", "osm_id": null}, "geometry": {"type": "Point", "coordinates": [14.242498, 40.872276]}}, {"type": "Feature", "properties": {"wikidata": "Q4011921", "name": "Villa Crespi", "status": "missing", "osm_id": null}, "geometry": {"type": "Point", "coordinates": [14.218404, 40.827472]}}, {"type": "Feature", "properties": {"wikidata": "Q4012608", "name": "Villa Tufarelli", "status": "missing", "osm_id": null}, "geometry": {"type": "Point", "coordinates": [14.34427, 40.84406]}}, {"type": "Feature", "properties": {"wikidata": "Q4012549", "name": "Villa Sinicopri", "status": "missing", "osm_id": null}, "geometry": {"type": "Point", "coordinates": [14.340806, 40.832298]}}, {"type": "Feature", "properties": {"wikidata": "Q4011824", "name": "Villa Bonocore", "status": "missing", "osm_id": null}, "geometry": {"type": "Point", "coordinates": [14.342748, 40.836655]}}, {"type": "Feature", "properties": {"wikidata": "Q4011830", "name": "Villa Borrelli", "status": "missing", "osm_id": null}, "geometry": {"type": "Point", "coordinates": [14.335485, 40.828139]}}, {"type": "Feature", "properties": {"wikidata": "Q4012407", "name": "Villa Paudice", "status": "missing", "osm_id": null}, "geometry": {"type": "Point", "coordinates": [14.32169, 40.82337]}}, {"type": "Feature", "properties": {"wikidata": "Q4012498", "name": "Villa Salvetella", "status": "missing", "osm_id": null}, "geometry": {"type": "Point", "coordinates": [14.3385, 40.83331]}}, {"type": "Feature", "properties": {"wikidata": "Q4012551", "name": "Villa Sora", "status": "done", "osm_id": "way/262446605"}, "geometry": {"type": "Point", "coordinates": [14.374717, 40.778191]}}, {"type": "Feature", "properties": {"wikidata": "Q4011886", "name": "Villa Cerbone", "status": "missing", "osm_id": null}, "geometry": {"type": "Point", "coordinates": [14.332674, 40.826719]}}, {"type": "Feature", "properties": {"wikidata": "Q4011982", "name": "Villa Faraone", "status": "missing", "osm_id": null}, "geometry": {"type": "Point", "coordinates": [14.323, 40.823]}}, {"type": "Feature", "properties": {"wikidata": "Q4012611", "name": "Villa Ummarino", "status": "missing", "osm_id": null}, "geometry": {"type": "Point", "coordinates": [14.32806, 40.82745]}}, {"type": "Feature", "properties": {"wikidata": "Q4011860", "name": "Villa Caracciolo di Forino", "status": "missing", "osm_id": null}, "geometry": {"type": "Point", "coordinates": [14.333661, 40.827076]}}, {"type": "Feature", "properties": {"wikidata": "Q4011839", "name": "Villa Bozzi", "status": "missing", "osm_id": null}, "geometry": {"type": "Point", "coordinates": [14.257827, 40.870558]}}, {"type": "Feature", "properties": {"wikidata": "Q4012641", "name": "Villa Volpicelli", "status": "missing", "osm_id": null}, "geometry": {"type": "Point", "coordinates": [14.318607, 40.824471]}}, {"type": "Feature", "properties": {"wikidata": "Q4012292", "name": "Villa Marulli", "status": "missing", "osm_id": null}, "geometry": {"type": "Point", "coordinates": [14.34876, 40.83984]}}, {"type": "Feature", "properties": {"wikidata": "Q18435979", "name": "Colli", "status": "missing", "osm_id": null}, "geometry": {"type": "Point", "coordinates": [14.67417, 41.23326]}}, {"type": "Feature", "properties": {"wikidata": "Q18435951", "name": "Cerreta", "status": "missing", "osm_id": null}, "geometry": {"type": "Point", "coordinates": [14.5134, 41.12358]}}, {"type": "Feature", "properties": {"wikidata": "Q3675048", "name": "Chiostri dei Girolamini", "status": "missing", "osm_id": null}, "geometry": {"type": "Point", "coordinates": [14.25830278, 40.852625]}}, {"type": "Feature", "properties": {"wikidata": "Q3689005", "name": "Contrada Bagnoli", "status": "done", "osm_id": "node/4371325109"}, "geometry": {"type": "Point", "coordinates": [14.759141666, 40.8959]}}, {"type": "Feature", "properties": {"wikidata": "Q3675107", "name": "chiostro di Sant'Agnello", "status": "missing", "osm_id": null}, "geometry": {"type": "Point", "coordinates": [14.25205, 40.85311111]}}, {"type": "Feature", "properties": {"wikidata": "Q3675049", "name": "Chiostri del Carmine Maggiore", "status": "done", "osm_id": "way/253501232"}, "geometry": {"type": "Point", "coordinates": [14.26788611, 40.84659722]}}, {"type": "Feature", "properties": {"wikidata": "Q3693915", "name": "Coroglio", "status": "missing", "osm_id": null}, "geometry": {"type": "Point", "coordinates": [14.173579578, 40.807950986]}}, {"type": "Feature", "properties": {"wikidata": "Q3685199", "name": "Complesso dell'Eremo di Santa Maria di Pietraspaccata", "status": "missing", "osm_id": null}, "geometry": {"type": "Point", "coordinates": [14.170075, 40.883217]}}, {"type": "Feature", "properties": {"wikidata": "Q3685193", "name": "complesso dei Cinesi", "status": "missing", "osm_id": null}, "geometry": {"type": "Point", "coordinates": [14.25043, 40.860955]}}, {"type": "Feature", "properties": {"wikidata": "Q3678437", "name": "Citt\u00e0 del libro", "status": "missing", "osm_id": null}, "geometry": {"type": "Point", "coordinates": [14.347022, 40.864394]}}, {"type": "Feature", "properties": {"wikidata": "Q3685224", "name": "complesso di Torre Ranieri", "status": "missing", "osm_id": null}, "geometry": {"type": "Point", "coordinates": [14.194548, 40.807791]}}, {"type": "Feature", "properties": {"wikidata": "Q3689554", "name": "convento di San Francesco a Serino", "status": "missing", "osm_id": null}, "geometry": {"type": "Point", "coordinates": [14.8734039, 40.8583558]}}, {"type": "Feature", "properties": {"wikidata": "Q3685216", "name": "complesso di Santa Maria della Consolazione", "status": "done", "osm_id": "way/283514882"}, "geometry": {"type": "Point", "coordinates": [14.25576, 40.854335]}}, {"type": "Feature", "properties": {"wikidata": "Q3675058", "name": "chiostri di San Pietro a Majella", "status": "missing", "osm_id": null}, "geometry": {"type": "Point", "coordinates": [14.25276111, 40.84939444]}}, {"type": "Feature", "properties": {"wikidata": "Q3675117", "name": "chiostro di Suor Orsola", "status": "missing", "osm_id": null}, "geometry": {"type": "Point", "coordinates": [14.242656, 40.840575]}}, {"type": "Feature", "properties": {"wikidata": "Q3675114", "name": "chiostro di Santa Maria della Colonna", "status": "missing", "osm_id": null}, "geometry": {"type": "Point", "coordinates": [14.25879722, 40.85114444]}}, {"type": "Feature", "properties": {"wikidata": "Q3675110", "name": "chiostro di Sant'Eframo Vecchio", "status": "missing", "osm_id": null}, "geometry": {"type": "Point", "coordinates": [14.25907, 40.868052]}}, {"type": "Feature", "properties": {"wikidata": "Q3675096", "name": "chiostro di San Domenico Soriano", "status": "done", "osm_id": "relation/3614719"}, "geometry": {"type": "Point", "coordinates": [14.249375, 40.84884167]}}, {"type": "Feature", "properties": {"wikidata": "Q3675101", "name": "chiostro di San Nicola da Tolentino", "status": "missing", "osm_id": null}, "geometry": {"type": "Point", "coordinates": [14.241791888, 40.840303456]}}, {"type": "Feature", "properties": {"wikidata": "Q3677404", "name": "Ciorani", "status": "done", "osm_id": "node/1582449954"}, "geometry": {"type": "Point", "coordinates": [14.73182, 40.80525]}}, {"type": "Feature", "properties": {"wikidata": "Q3675115", "name": "chiostro di Santa Maria di Piedigrotta", "status": "missing", "osm_id": null}, "geometry": {"type": "Point", "coordinates": [14.21916, 40.8306]}}, {"type": "Feature", "properties": {"wikidata": "Q3689529", "name": "convento di San Felice", "status": "done", "osm_id": "relation/3353393"}, "geometry": {"type": "Point", "coordinates": [14.78662778, 41.12615833]}}, {"type": "Feature", "properties": {"wikidata": "Q3675075", "name": "chiostro dei Santi Apostoli", "status": "missing", "osm_id": null}, "geometry": {"type": "Point", "coordinates": [14.26009444, 40.85427778]}}, {"type": "Feature", "properties": {"wikidata": "Q3676917", "name": "cimitero dei Colerosi di Napoli", "status": "done", "osm_id": "way/1062659710"}, "geometry": {"type": "Point", "coordinates": [14.278648, 40.867317]}}, {"type": "Feature", "properties": {"wikidata": "Q3675074", "name": "chiostro dei Miracoli", "status": "done", "osm_id": "relation/6440895"}, "geometry": {"type": "Point", "coordinates": [14.25688611, 40.85890556]}}, {"type": "Feature", "properties": {"wikidata": "Q3675056", "name": "Chiostri di San Giuseppe dei Ruffi", "status": "missing", "osm_id": null}, "geometry": {"type": "Point", "coordinates": [14.25751667, 40.85383611]}}, {"type": "Feature", "properties": {"wikidata": "Q3689583", "name": "convento di San Pasquale", "status": "done", "osm_id": "relation/3353394"}, "geometry": {"type": "Point", "coordinates": [14.782025, 41.13432778]}}, {"type": "Feature", "properties": {"wikidata": "Q3685238", "name": "complesso monumentale di Santa Sofia", "status": "missing", "osm_id": null}, "geometry": {"type": "Point", "coordinates": [14.75753, 40.68077]}}, {"type": "Feature", "properties": {"wikidata": "Q3675060", "name": "chiostri di Santa Caterina a Formiello", "status": "missing", "osm_id": null}, "geometry": {"type": "Point", "coordinates": [14.26461667, 40.85473056]}}, {"type": "Feature", "properties": {"wikidata": "Q3675052", "name": "Chiostri di Monteoliveto", "status": "missing", "osm_id": null}, "geometry": {"type": "Point", "coordinates": [14.25071, 40.844334]}}, {"type": "Feature", "properties": {"wikidata": "Q3675080", "name": "Chiostro dell'Ospedaletto", "status": "missing", "osm_id": null}, "geometry": {"type": "Point", "coordinates": [14.253036, 40.842637]}}, {"type": "Feature", "properties": {"wikidata": "Q3675097", "name": "Chiostro di San Giovanni a Carbonara", "status": "missing", "osm_id": null}, "geometry": {"type": "Point", "coordinates": [14.25996389, 40.85629444]}}, {"type": "Feature", "properties": {"wikidata": "Q3675055", "name": "Chiostri di San Domenico Maggiore", "status": "missing", "osm_id": null}, "geometry": {"type": "Point", "coordinates": [14.25323611, 40.84879444]}}, {"type": "Feature", "properties": {"wikidata": "Q3890347", "name": "Palazzo Loffredo", "status": "missing", "osm_id": null}, "geometry": {"type": "Point", "coordinates": [14.258961, 40.854693]}}, {"type": "Feature", "properties": {"wikidata": "Q3890795", "name": "Palazzo Ruffo di Bagnara", "status": "done", "osm_id": "relation/3614685"}, "geometry": {"type": "Point", "coordinates": [14.24969, 40.84963]}}, {"type": "Feature", "properties": {"wikidata": "Q3890298", "name": "Palazzo Ischitella", "status": "done", "osm_id": "way/411278531"}, "geometry": {"type": "Point", "coordinates": [14.238972, 40.833343]}}, {"type": "Feature", "properties": {"wikidata": "Q3890864", "name": "Palazzo Scarpetta", "status": "done", "osm_id": "relation/2444612"}, "geometry": {"type": "Point", "coordinates": [14.235518, 40.836618]}}, {"type": "Feature", "properties": {"wikidata": "Q3890681", "name": "Palazzo Piscicelli", "status": "missing", "osm_id": null}, "geometry": {"type": "Point", "coordinates": [14.261801, 40.851563]}}, {"type": "Feature", "properties": {"wikidata": "Q3890932", "name": "Palazzo Spinelli di Fuscaldo", "status": "done", "osm_id": "way/270222011"}, "geometry": {"type": "Point", "coordinates": [14.251605, 40.850685]}}, {"type": "Feature", "properties": {"wikidata": "Q3890517", "name": "Palazzo Morese", "status": "missing", "osm_id": null}, "geometry": {"type": "Point", "coordinates": [14.759354, 40.678791]}}, {"type": "Feature", "properties": {"wikidata": "Q3890797", "name": "Palazzo Ruggi d'Aragona", "status": "done", "osm_id": "way/278888647"}, "geometry": {"type": "Point", "coordinates": [14.75595, 40.68074]}}, {"type": "Feature", "properties": {"wikidata": "Q3890620", "name": "Palazzo Patern\u00f2", "status": "missing", "osm_id": null}, "geometry": {"type": "Point", "coordinates": [14.339261, 41.073339]}}, {"type": "Feature", "properties": {"wikidata": "Q3890796", "name": "Palazzo Ruffo di Castelcicala", "status": "missing", "osm_id": null}, "geometry": {"type": "Point", "coordinates": [14.260442, 40.857866]}}, {"type": "Feature", "properties": {"wikidata": "Q3890519", "name": "Palazzo Morisani", "status": "done", "osm_id": "relation/3579696"}, "geometry": {"type": "Point", "coordinates": [14.25158, 40.846635]}}, {"type": "Feature", "properties": {"wikidata": "Q3890949", "name": "Palazzo Statella", "status": "missing", "osm_id": null}, "geometry": {"type": "Point", "coordinates": [14.241805, 40.832432]}}, {"type": "Feature", "properties": {"wikidata": "Q3890931", "name": "Palazzo Spinelli di Cariati", "status": "missing", "osm_id": null}, "geometry": {"type": "Point", "coordinates": [14.243871, 40.8402]}}, {"type": "Feature", "properties": {"wikidata": "Q3890326", "name": "Palazzo Lauro di Bisignano", "status": "missing", "osm_id": null}, "geometry": {"type": "Point", "coordinates": [14.246532, 40.84805]}}, {"type": "Feature", "properties": {"wikidata": "Q3890515", "name": "Palazzo Montemajor", "status": "missing", "osm_id": null}, "geometry": {"type": "Point", "coordinates": [14.252972, 40.853756]}}, {"type": "Feature", "properties": {"wikidata": "Q3890559", "name": "Palazzo Nunziante", "status": "done", "osm_id": "relation/4873333"}, "geometry": {"type": "Point", "coordinates": [14.2425, 40.83382]}}, {"type": "Feature", "properties": {"wikidata": "Q3890643", "name": "Palazzo Petriccione di Vadi", "status": "missing", "osm_id": null}, "geometry": {"type": "Point", "coordinates": [14.240097, 40.836378]}}, {"type": "Feature", "properties": {"wikidata": "Q3890789", "name": "Palazzo Rota", "status": "missing", "osm_id": null}, "geometry": {"type": "Point", "coordinates": [14.254192, 40.847539]}}, {"type": "Feature", "properties": {"wikidata": "Q3969573", "name": "stazione di Falciano-Mondragone-Carinola", "status": "done", "osm_id": "node/12294030826"}, "geometry": {"type": "Point", "coordinates": [13.9717, 41.1234]}}, {"type": "Feature", "properties": {"wikidata": "Q2190951", "name": "Santa Lucia", "status": "done", "osm_id": "node/2705642479"}, "geometry": {"type": "Point", "coordinates": [14.730555555, 40.733333333]}}, {"type": "Feature", "properties": {"wikidata": "Q1978715", "name": "Borgo Centore", "status": "done", "osm_id": "way/1084604522"}, "geometry": {"type": "Point", "coordinates": [13.795, 41.23]}}, {"type": "Feature", "properties": {"wikidata": "Q2636719", "name": "Pizzolano", "status": "done", "osm_id": "node/3160955724"}, "geometry": {"type": "Point", "coordinates": [14.78188, 40.78254]}}, {"type": "Feature", "properties": {"wikidata": "Q2546064", "name": "Santa Maria a Toro", "status": "done", "osm_id": "node/4450952213"}, "geometry": {"type": "Point", "coordinates": [14.816666666, 41.066666666]}}, {"type": "Feature", "properties": {"wikidata": "Q2107485", "name": "Castelluccio", "status": "missing", "osm_id": null}, "geometry": {"type": "Point", "coordinates": [14.684722222, 40.783333333]}}, {"type": "Feature", "properties": {"wikidata": "Q2297356", "name": "Santa Maria a Favore", "status": "missing", "osm_id": null}, "geometry": {"type": "Point", "coordinates": [14.684722222, 40.783333333]}}, {"type": "Feature", "properties": {"wikidata": "Q2422469", "name": "Trivio Codola", "status": "missing", "osm_id": null}, "geometry": {"type": "Point", "coordinates": [14.684722222, 40.783333333]}}, {"type": "Feature", "properties": {"wikidata": "Q2492468", "name": "Fimiani", "status": "missing", "osm_id": null}, "geometry": {"type": "Point", "coordinates": [14.681666666, 40.770555555]}}, {"type": "Feature", "properties": {"wikidata": "Q2105634", "name": "Posillipo", "status": "missing", "osm_id": null}, "geometry": {"type": "Point", "coordinates": [14.203434, 40.805624]}}, {"type": "Feature", "properties": {"wikidata": "Q1988020", "name": "Santa Maria del Rovo", "status": "done", "osm_id": "node/2704121831"}, "geometry": {"type": "Point", "coordinates": [14.714166666, 40.7]}}, {"type": "Feature", "properties": {"wikidata": "Q2347942", "name": "Mattinelle", "status": "done", "osm_id": "node/1081511430"}, "geometry": {"type": "Point", "coordinates": [15.095, 40.616666666]}}, {"type": "Feature", "properties": {"wikidata": "Q1942404", "name": "Castagneto", "status": "done", "osm_id": "node/2704185006"}, "geometry": {"type": "Point", "coordinates": [14.685555555, 40.685555555]}}, {"type": "Feature", "properties": {"wikidata": "Q2061218", "name": "San Pietro", "status": "done", "osm_id": "node/4450927797"}, "geometry": {"type": "Point", "coordinates": [14.534722222, 40.75]}}, {"type": "Feature", "properties": {"wikidata": "Q4010659", "name": "via Marechiaro", "status": "done", "osm_id": "way/206166254"}, "geometry": {"type": "Point", "coordinates": [14.190165, 40.799153]}}, {"type": "Feature", "properties": {"wikidata": "Q4011769", "name": "Villa Arata", "status": "missing", "osm_id": null}, "geometry": {"type": "Point", "coordinates": [14.209, 40.8186]}}, {"type": "Feature", "properties": {"wikidata": "Q4011742", "name": "Villa Addeo", "status": "missing", "osm_id": null}, "geometry": {"type": "Point", "coordinates": [14.260446, 40.868851]}}, {"type": "Feature", "properties": {"wikidata": "Q4011761", "name": "Villa Amirante", "status": "missing", "osm_id": null}, "geometry": {"type": "Point", "coordinates": [14.339041, 40.829365]}}, {"type": "Feature", "properties": {"wikidata": "Q4010696", "name": "via Ponti Rossi", "status": "missing", "osm_id": null}, "geometry": {"type": "Point", "coordinates": [14.258088, 40.870444]}}, {"type": "Feature", "properties": {"wikidata": "Q4010590", "name": "via Chiaia", "status": "missing", "osm_id": null}, "geometry": {"type": "Point", "coordinates": [14.24552, 40.836095]}}, {"type": "Feature", "properties": {"wikidata": "Q4010733", "name": "via Santa Maria di Costantinopoli", "status": "missing", "osm_id": null}, "geometry": {"type": "Point", "coordinates": [14.2517, 40.851958]}}, {"type": "Feature", "properties": {"wikidata": "Q4010732", "name": "via Santa Maria Antesaecula", "status": "missing", "osm_id": null}, "geometry": {"type": "Point", "coordinates": [14.252042, 40.8586333]}}, {"type": "Feature", "properties": {"wikidata": "Q4011781", "name": "Villa Avallone Tufarelli", "status": "missing", "osm_id": null}, "geometry": {"type": "Point", "coordinates": [14.334884, 40.827368]}}, {"type": "Feature", "properties": {"wikidata": "Q3673888", "name": "chiesa di Santa Maria della Pomice", "status": "missing", "osm_id": null}, "geometry": {"type": "Point", "coordinates": [14.613639, 40.666789]}}, {"type": "Feature", "properties": {"wikidata": "Q3674156", "name": "chiesa di Santa Maria la Manna", "status": "missing", "osm_id": null}, "geometry": {"type": "Point", "coordinates": [14.542833, 40.642306]}}, {"type": "Feature", "properties": {"wikidata": "Q3674034", "name": "chiesa di Santa Maria di Costantinopoli", "status": "done", "osm_id": "way/272307455"}, "geometry": {"type": "Point", "coordinates": [14.77286667, 41.1367]}}, {"type": "Feature", "properties": {"wikidata": "Q3673865", "name": "chiesa di Santa Maria della Neve", "status": "missing", "osm_id": null}, "geometry": {"type": "Point", "coordinates": [14.602592, 40.635953]}}, {"type": "Feature", "properties": {"wikidata": "Q3673903", "name": "chiesa di Santa Maria della Purit\u00e0", "status": "done", "osm_id": "way/137135531"}, "geometry": {"type": "Point", "coordinates": [14.28167, 40.88895]}}, {"type": "Feature", "properties": {"wikidata": "Q3673642", "name": "chiesa di Santa Maria de Castro", "status": "missing", "osm_id": null}, "geometry": {"type": "Point", "coordinates": [14.726703, 40.852471]}}, {"type": "Feature", "properties": {"wikidata": "Q3672900", "name": "chiesa di Santa Caterina", "status": "missing", "osm_id": null}, "geometry": {"type": "Point", "coordinates": [14.207469301, 41.11373805]}}, {"type": "Feature", "properties": {"wikidata": "Q3673782", "name": "chiesa di Santa Maria del Soccorso", "status": "done", "osm_id": "way/935422192"}, "geometry": {"type": "Point", "coordinates": [14.32053, 40.82357]}}, {"type": "Feature", "properties": {"wikidata": "Q3674407", "name": "chiesa ed ex convento domenicano di San Bartolomeo", "status": "missing", "osm_id": null}, "geometry": {"type": "Point", "coordinates": [15.101898, 40.668644]}}, {"type": "Feature", "properties": {"wikidata": "Q3674187", "name": "chiesa di Santa Patrizia", "status": "done", "osm_id": "way/271301091"}, "geometry": {"type": "Point", "coordinates": [14.25552, 40.85355]}}, {"type": "Feature", "properties": {"wikidata": "Q3674079", "name": "chiesa di Santa Maria di Portosalvo", "status": "done", "osm_id": "way/119945550"}, "geometry": {"type": "Point", "coordinates": [14.36338, 40.78552]}}, {"type": "Feature", "properties": {"wikidata": "Q3674208", "name": "chiesa di Santa Rosa a Regina Coeli", "status": "done", "osm_id": "way/280029541"}, "geometry": {"type": "Point", "coordinates": [14.254088, 40.851904]}}, {"type": "Feature", "properties": {"wikidata": "Q3673454", "name": "chiesa di Santa Maria Maddalena ai Cristallini", "status": "done", "osm_id": "way/1340247396"}, "geometry": {"type": "Point", "coordinates": [14.25338, 40.86022]}}, {"type": "Feature", "properties": {"wikidata": "Q3673864", "name": "chiesa di Santa Maria della Nativit\u00e0", "status": "done", "osm_id": "way/627523388"}, "geometry": {"type": "Point", "coordinates": [14.26841, 40.88787]}}, {"type": "Feature", "properties": {"wikidata": "Q3673587", "name": "chiesa di Santa Maria a Piazza", "status": "missing", "osm_id": null}, "geometry": {"type": "Point", "coordinates": [14.6024, 40.633931]}}, {"type": "Feature", "properties": {"wikidata": "Q3674071", "name": "chiesa di Santa Maria di Piedigrotta al Lavinaio", "status": "done", "osm_id": "way/274949845"}, "geometry": {"type": "Point", "coordinates": [14.2674, 40.8483]}}, {"type": "Feature", "properties": {"wikidata": "Q3674006", "name": "chiesa di Santa Maria delle Grazie all'Orto del Conte", "status": "missing", "osm_id": null}, "geometry": {"type": "Point", "coordinates": [14.2666, 40.8492]}}, {"type": "Feature", "properties": {"wikidata": "Q3673925", "name": "chiesa di Santa Maria della Strada", "status": "missing", "osm_id": null}, "geometry": {"type": "Point", "coordinates": [14.628389, 41.252272]}}, {"type": "Feature", "properties": {"wikidata": "Q3673846", "name": "chiesa di Santa Maria della Lettera", "status": "missing", "osm_id": null}, "geometry": {"type": "Point", "coordinates": [14.24717, 40.84081]}}, {"type": "Feature", "properties": {"wikidata": "Q3673458", "name": "chiesa di Santa Maria Maddalena alle Cappuccinelle", "status": "missing", "osm_id": null}, "geometry": {"type": "Point", "coordinates": [14.247, 40.849639]}}, {"type": "Feature", "properties": {"wikidata": "Q27670198", "name": "piazza Carlo di Borbone", "status": "missing", "osm_id": null}, "geometry": {"type": "Point", "coordinates": [14.3269, 41.0703]}}, {"type": "Feature", "properties": {"wikidata": "Q2755954", "name": "Bivio Pratole", "status": "done", "osm_id": "node/6304760985"}, "geometry": {"type": "Point", "coordinates": [14.92565, 40.6258]}}, {"type": "Feature", "properties": {"wikidata": "Q2887116", "name": "basilica di San Sossio Levita e Martire", "status": "done", "osm_id": "way/793285515"}, "geometry": {"type": "Point", "coordinates": [14.2756, 40.9419]}}, {"type": "Feature", "properties": {"wikidata": "Q2862497", "name": "Campomanfoli", "status": "missing", "osm_id": null}, "geometry": {"type": "Point", "coordinates": [14.706441666, 40.791469444]}}, {"type": "Feature", "properties": {"wikidata": "Q3708858", "name": "Dipendenza Villa Spinelli", "status": "missing", "osm_id": null}, "geometry": {"type": "Point", "coordinates": [14.3223, 40.83732]}}, {"type": "Feature", "properties": {"wikidata": "Q3699041", "name": "Cubante", "status": "done", "osm_id": "node/5765231685"}, "geometry": {"type": "Point", "coordinates": [14.878155, 41.080244]}}, {"type": "Feature", "properties": {"wikidata": "Q3891643", "name": "Palazzo in via Carbonara 33", "status": "missing", "osm_id": null}, "geometry": {"type": "Point", "coordinates": [14.26174, 40.855289]}}, {"type": "Feature", "properties": {"wikidata": "Q3895470", "name": "parco archeologico urbano di Volcei", "status": "missing", "osm_id": null}, "geometry": {"type": "Point", "coordinates": [15.374208, 40.633724]}}, {"type": "Feature", "properties": {"wikidata": "Q3731311", "name": "eremo dei Cappuccini", "status": "done", "osm_id": "way/737178569"}, "geometry": {"type": "Point", "coordinates": [14.25424, 40.88108]}}, {"type": "Feature", "properties": {"wikidata": "Q18436472", "name": "Campagnola", "status": "done", "osm_id": "node/4381460046"}, "geometry": {"type": "Point", "coordinates": [14.03199, 41.3017]}}, {"type": "Feature", "properties": {"wikidata": "Q3895491", "name": "parco del Mercatello", "status": "done", "osm_id": "way/50897334"}, "geometry": {"type": "Point", "coordinates": [14.80569, 40.66091]}}, {"type": "Feature", "properties": {"wikidata": "Q3776895", "name": "Gromola/Foce Sele", "status": "done", "osm_id": "node/10780168378"}, "geometry": {"type": "Point", "coordinates": [14.989722222, 40.473888888]}}, {"type": "Feature", "properties": {"wikidata": "Q3709277", "name": "discarica di Cava Sari", "status": "missing", "osm_id": null}, "geometry": {"type": "Point", "coordinates": [14.461348, 40.794838]}}, {"type": "Feature", "properties": {"wikidata": "Q3891671", "name": "Palazzo in vico Purgatorio ad Arco 13", "status": "missing", "osm_id": null}, "geometry": {"type": "Point", "coordinates": [14.255185, 40.851281]}}, {"type": "Feature", "properties": {"wikidata": "Q3891649", "name": "Palazzo in via Materdei 20", "status": "missing", "osm_id": null}, "geometry": {"type": "Point", "coordinates": [14.24702, 40.855982]}}, {"type": "Feature", "properties": {"wikidata": "Q3757837", "name": "Gallo", "status": "done", "osm_id": "node/4429705165"}, "geometry": {"type": "Point", "coordinates": [14.55, 40.95]}}, {"type": "Feature", "properties": {"wikidata": "Q3774141", "name": "Gradini Conte di Mola", "status": "missing", "osm_id": null}, "geometry": {"type": "Point", "coordinates": [14.24767, 40.83874]}}, {"type": "Feature", "properties": {"wikidata": "Q3891668", "name": "Palazzo in via Tribunali 169", "status": "missing", "osm_id": null}, "geometry": {"type": "Point", "coordinates": [14.261069, 40.852283]}}, {"type": "Feature", "properties": {"wikidata": "Q3735818", "name": "abbazia di Santa Maria a Cappella Vecchia", "status": "done", "osm_id": "relation/6813718"}, "geometry": {"type": "Point", "coordinates": [14.2429, 40.8336]}}, {"type": "Feature", "properties": {"wikidata": "Q18436434", "name": "Ameglio", "status": "done", "osm_id": "node/2650941964"}, "geometry": {"type": "Point", "coordinates": [14.04216, 41.32693]}}, {"type": "Feature", "properties": {"wikidata": "Q3757764", "name": "Galleria nazionale dei Selachoidei", "status": "missing", "osm_id": null}, "geometry": {"type": "Point", "coordinates": [14.784719, 40.920536]}}, {"type": "Feature", "properties": {"wikidata": "Q3748410", "name": "Fornaci romane di Eboli", "status": "missing", "osm_id": null}, "geometry": {"type": "Point", "coordinates": [15.05428, 40.62209]}}, {"type": "Feature", "properties": {"wikidata": "Q3705735", "name": "Depuratore di San Giovanni a Teduccio", "status": "missing", "osm_id": null}, "geometry": {"type": "Point", "coordinates": [14.312253, 40.826995]}}, {"type": "Feature", "properties": {"wikidata": "Q3895576", "name": "parco di Via Nicolardi", "status": "missing", "osm_id": null}, "geometry": {"type": "Point", "coordinates": [14.238456, 40.874977]}}, {"type": "Feature", "properties": {"wikidata": "Q3757743", "name": "galleria dell'Orco", "status": "done", "osm_id": "way/29492915"}, "geometry": {"type": "Point", "coordinates": [14.652425, 40.771954]}}, {"type": "Feature", "properties": {"wikidata": "Q3705734", "name": "Depuratore di Cuma", "status": "done", "osm_id": "way/170319085"}, "geometry": {"type": "Point", "coordinates": [14.06432, 40.870609]}}, {"type": "Feature", "properties": {"wikidata": "Q3891669", "name": "Palazzo in via Tribunali 276", "status": "missing", "osm_id": null}, "geometry": {"type": "Point", "coordinates": [14.259766, 40.851814]}}, {"type": "Feature", "properties": {"wikidata": "Q3775064", "name": "Grand Hotel de Londres", "status": "done", "osm_id": "way/212082781"}, "geometry": {"type": "Point", "coordinates": [14.252936, 40.840131]}}, {"type": "Feature", "properties": {"wikidata": "Q3778841", "name": "Guglia dell'Immacolata di Materdei", "status": "missing", "osm_id": null}, "geometry": {"type": "Point", "coordinates": [14.244225, 40.85587]}}, {"type": "Feature", "properties": {"wikidata": "Q27686514", "name": "casa di L. Aurunculeius Secundio (VI.16.32)", "status": "missing", "osm_id": null}, "geometry": {"type": "Point", "coordinates": [14.48471084, 40.752472995]}}, {"type": "Feature", "properties": {"wikidata": "Q27686563", "name": "cella vinaria (VI.17.35)", "status": "missing", "osm_id": null}, "geometry": {"type": "Point", "coordinates": [14.482831417, 40.75061688]}}, {"type": "Feature", "properties": {"wikidata": "Q27686608", "name": "scuderia (VII.1.30)", "status": "missing", "osm_id": null}, "geometry": {"type": "Point", "coordinates": [14.487206848, 40.750662859]}}, {"type": "Feature", "properties": {"wikidata": "Q18436490", "name": "Cardoni", "status": "done", "osm_id": "node/4381460049"}, "geometry": {"type": "Point", "coordinates": [14.03348, 41.31996]}}, {"type": "Feature", "properties": {"wikidata": "Q18436478", "name": "Campolongo", "status": "missing", "osm_id": null}, "geometry": {"type": "Point", "coordinates": [13.89637, 41.38558]}}, {"type": "Feature", "properties": {"wikidata": "Q18436543", "name": "Cittadella", "status": "missing", "osm_id": null}, "geometry": {"type": "Point", "coordinates": [14.06841, 41.29541]}}, {"type": "Feature", "properties": {"wikidata": "Q27687007", "name": "casa del Granduca di Toscana (VII.4.56)", "status": "done", "osm_id": "way/1300383377"}, "geometry": {"type": "Point", "coordinates": [14.484996605, 40.751029866]}}, {"type": "Feature", "properties": {"wikidata": "Q27686811", "name": "casa del Panettiere (VII.3.30)", "status": "missing", "osm_id": null}, "geometry": {"type": "Point", "coordinates": [14.485802153, 40.751035146]}}, {"type": "Feature", "properties": {"wikidata": "Q17625036", "name": "chiesa di Santa Lucia de Judaica", "status": "done", "osm_id": "way/679137870"}, "geometry": {"type": "Point", "coordinates": [14.757861, 40.678583]}}, {"type": "Feature", "properties": {"wikidata": "Q16610111", "name": "stazione di Cangiani", "status": "done", "osm_id": "node/250312780"}, "geometry": {"type": "Point", "coordinates": [14.5377, 40.7855]}}, {"type": "Feature", "properties": {"wikidata": "Q16609820", "name": "stazione di San Pietro", "status": "done", "osm_id": "node/250313706"}, "geometry": {"type": "Point", "coordinates": [14.5344, 40.7606]}}, {"type": "Feature", "properties": {"wikidata": "Q16621543", "name": "Villa Ruggiero", "status": "done", "osm_id": "way/348685087"}, "geometry": {"type": "Point", "coordinates": [14.35554, 40.80194]}}, {"type": "Feature", "properties": {"wikidata": "Q16612733", "name": "Tempio di Pomona", "status": "missing", "osm_id": null}, "geometry": {"type": "Point", "coordinates": [14.75996, 40.679772]}}, {"type": "Feature", "properties": {"wikidata": "Q17462212", "name": "santuario di Maria Santissima dell'Abbondanza", "status": "done", "osm_id": "way/1429986438"}, "geometry": {"type": "Point", "coordinates": [14.58205, 40.904125]}}, {"type": "Feature", "properties": {"wikidata": "Q16621281", "name": "Villa Aprile", "status": "done", "osm_id": "way/304792320"}, "geometry": {"type": "Point", "coordinates": [14.35144, 40.80376]}}, {"type": "Feature", "properties": {"wikidata": "Q17624768", "name": "chiesa del Santissimo Corpo di Cristo", "status": "done", "osm_id": "way/435710394"}, "geometry": {"type": "Point", "coordinates": [14.12076, 40.82111]}}, {"type": "Feature", "properties": {"wikidata": "Q17624952", "name": "chiesa di San Michele Arcangelo", "status": "done", "osm_id": "way/672021483"}, "geometry": {"type": "Point", "coordinates": [14.76175, 40.679444]}}, {"type": "Feature", "properties": {"wikidata": "Q16609521", "name": "stazione di Omignano-Salento", "status": "done", "osm_id": "relation/6663414"}, "geometry": {"type": "Point", "coordinates": [15.134466, 40.252665]}}, {"type": "Feature", "properties": {"wikidata": "Q16539840", "name": "chiesa del Santissimo Redentore", "status": "done", "osm_id": "way/220170605"}, "geometry": {"type": "Point", "coordinates": [14.36225, 40.80222]}}, {"type": "Feature", "properties": {"wikidata": "Q16543991", "name": "convento di San Nicola della Palma", "status": "missing", "osm_id": null}, "geometry": {"type": "Point", "coordinates": [14.75313, 40.68178]}}, {"type": "Feature", "properties": {"wikidata": "Q16540274", "name": "chiesa di San Marco Evangelista", "status": "missing", "osm_id": null}, "geometry": {"type": "Point", "coordinates": [14.938722, 40.268619]}}, {"type": "Feature", "properties": {"wikidata": "Q16543984", "name": "convento di San Lorenzo", "status": "done", "osm_id": "way/671117434"}, "geometry": {"type": "Point", "coordinates": [14.75542, 40.68175]}}, {"type": "Feature", "properties": {"wikidata": "Q16585900", "name": "Palazzi Brunasso", "status": "done", "osm_id": "way/267279258"}, "geometry": {"type": "Point", "coordinates": [14.249187, 40.847425]}}, {"type": "Feature", "properties": {"wikidata": "Q16556429", "name": "Fontana Helvius", "status": "done", "osm_id": "node/2377125327"}, "geometry": {"type": "Point", "coordinates": [14.60402778, 40.73302778]}}, {"type": "Feature", "properties": {"wikidata": "Q16600450", "name": "santuario di Maria Santissima Incoronata dei Bagni", "status": "missing", "osm_id": null}, "geometry": {"type": "Point", "coordinates": [14.5498, 40.74914]}}, {"type": "Feature", "properties": {"wikidata": "Q16540765", "name": "chiesa di Santa Maria delle Grazie al Moiariello", "status": "done", "osm_id": "way/434715880"}, "geometry": {"type": "Point", "coordinates": [14.257631, 40.864349]}}, {"type": "Feature", "properties": {"wikidata": "Q16587079", "name": "parco Croce", "status": "missing", "osm_id": null}, "geometry": {"type": "Point", "coordinates": [14.7125, 40.66833333]}}, {"type": "Feature", "properties": {"wikidata": "Q16540077", "name": "chiesa di San Felice in Felline", "status": "missing", "osm_id": null}, "geometry": {"type": "Point", "coordinates": [14.792444444, 40.677888888]}}, {"type": "Feature", "properties": {"wikidata": "Q16540701", "name": "chiesa di Santa Maria dei Greci", "status": "done", "osm_id": "way/276418722"}, "geometry": {"type": "Point", "coordinates": [14.77783, 40.70389]}}, {"type": "Feature", "properties": {"wikidata": "Q16540841", "name": "chiesa e convento della Maddalena", "status": "missing", "osm_id": null}, "geometry": {"type": "Point", "coordinates": [14.19625, 40.973166666]}}, {"type": "Feature", "properties": {"wikidata": "Q16599951", "name": "San Leonardo", "status": "missing", "osm_id": null}, "geometry": {"type": "Point", "coordinates": [14.834270086, 40.649026292]}}, {"type": "Feature", "properties": {"wikidata": "Q16570179", "name": "festa del Carro", "status": "missing", "osm_id": null}, "geometry": {"type": "Point", "coordinates": [15.0106, 41.044]}}, {"type": "Feature", "properties": {"wikidata": "Q16543752", "name": "Conservatorio Ave Gratia Plena Minor", "status": "missing", "osm_id": null}, "geometry": {"type": "Point", "coordinates": [14.75732, 40.68016]}}, {"type": "Feature", "properties": {"wikidata": "Q16537519", "name": "Casa del Combattente", "status": "missing", "osm_id": null}, "geometry": {"type": "Point", "coordinates": [14.758399, 40.677688]}}, {"type": "Feature", "properties": {"wikidata": "Q16580532", "name": "Museo Orientale Umberto Scerrato", "status": "missing", "osm_id": null}, "geometry": {"type": "Point", "coordinates": [14.24426635, 40.83118613]}}, {"type": "Feature", "properties": {"wikidata": "Q16591382", "name": "Ponte di Sacco", "status": "done", "osm_id": "way/35770965"}, "geometry": {"type": "Point", "coordinates": [15.364933333, 40.389722222]}}, {"type": "Feature", "properties": {"wikidata": "Q16586281", "name": "Palazzo Pernigotti", "status": "done", "osm_id": "way/275042032"}, "geometry": {"type": "Point", "coordinates": [14.76205, 40.67816]}}, {"type": "Feature", "properties": {"wikidata": "Q16540113", "name": "chiesa di San Francesco d'Assisi", "status": "missing", "osm_id": null}, "geometry": {"type": "Point", "coordinates": [14.45835, 40.77269]}}, {"type": "Feature", "properties": {"wikidata": "Q16544028", "name": "Convitto Nazionale Torquato Tasso", "status": "done", "osm_id": "way/275150200"}, "geometry": {"type": "Point", "coordinates": [14.75843, 40.68098]}}, {"type": "Feature", "properties": {"wikidata": "Q16608384", "name": "stadio Alberto De Cristofaro", "status": "done", "osm_id": "way/234031689"}, "geometry": {"type": "Point", "coordinates": [14.17217, 40.92742]}}, {"type": "Feature", "properties": {"wikidata": "Q16540513", "name": "chiesa di Sant'Anna al Porto", "status": "done", "osm_id": "way/671188886"}, "geometry": {"type": "Point", "coordinates": [14.751728, 40.678833]}}, {"type": "Feature", "properties": {"wikidata": "Q16554845", "name": "ex-seminario arcivescovile", "status": "missing", "osm_id": null}, "geometry": {"type": "Point", "coordinates": [14.760345852, 40.68076632]}}, {"type": "Feature", "properties": {"wikidata": "Q27070379", "name": "thermopolium (I.4.3)", "status": "missing", "osm_id": null}, "geometry": {"type": "Point", "coordinates": [14.488605534, 40.749565456]}}, {"type": "Feature", "properties": {"wikidata": "Q26833219", "name": "Bagno Elena", "status": "missing", "osm_id": null}, "geometry": {"type": "Point", "coordinates": [14.215842, 40.821968]}}, {"type": "Feature", "properties": {"wikidata": "Q27070365", "name": "thermopolium (I.3.22)", "status": "done", "osm_id": "node/9958941426"}, "geometry": {"type": "Point", "coordinates": [14.489154048, 40.749666458]}}, {"type": "Feature", "properties": {"wikidata": "Q27070403", "name": "thermopolium (I.4.27)", "status": "done", "osm_id": "node/9958873412"}, "geometry": {"type": "Point", "coordinates": [14.488775894, 40.750210712]}}, {"type": "Feature", "properties": {"wikidata": "Q4024705", "name": "zona ospedaliera di Napoli", "status": "missing", "osm_id": null}, "geometry": {"type": "Point", "coordinates": [14.217446, 40.868515]}}, {"type": "Feature", "properties": {"wikidata": "Q4012653", "name": "Villa Zelo", "status": "missing", "osm_id": null}, "geometry": {"type": "Point", "coordinates": [14.33817, 40.82179]}}, {"type": "Feature", "properties": {"wikidata": "Q4012666", "name": "Villa d'Avalos", "status": "missing", "osm_id": null}, "geometry": {"type": "Point", "coordinates": [14.206512, 40.81178]}}, {"type": "Feature", "properties": {"wikidata": "Q16336138", "name": "Museo d'arte sacra (Castellabate)", "status": "missing", "osm_id": null}, "geometry": {"type": "Point", "coordinates": [14.957445, 40.282585]}}, {"type": "Feature", "properties": {"wikidata": "Q15225713", "name": "Bastiglia", "status": "done", "osm_id": "way/202308920"}, "geometry": {"type": "Point", "coordinates": [14.753137, 40.687114]}}, {"type": "Feature", "properties": {"wikidata": "Q4012955", "name": "Villino Berlingieri", "status": "missing", "osm_id": null}, "geometry": {"type": "Point", "coordinates": [14.25129, 40.83294]}}, {"type": "Feature", "properties": {"wikidata": "Q5401440", "name": "scavi archeologici di Cuma", "status": "missing", "osm_id": null}, "geometry": {"type": "Point", "coordinates": [14.058067, 40.848075]}}, {"type": "Feature", "properties": {"wikidata": "Q16337189", "name": "chiesa del Corpus Domini", "status": "done", "osm_id": "way/734173602"}, "geometry": {"type": "Point", "coordinates": [14.372083, 40.943083]}}, {"type": "Feature", "properties": {"wikidata": "Q5404087", "name": "chiesa di San Filippo Neri", "status": "done", "osm_id": "way/274816317"}, "geometry": {"type": "Point", "coordinates": [14.7587, 40.6826]}}, {"type": "Feature", "properties": {"wikidata": "Q4012649", "name": "Villa Zampaglione", "status": "missing", "osm_id": null}, "geometry": {"type": "Point", "coordinates": [14.3334, 40.82704]}}, {"type": "Feature", "properties": {"wikidata": "Q16469737", "name": "chiesa di Santa Maria delle Grazie", "status": "missing", "osm_id": null}, "geometry": {"type": "Point", "coordinates": [14.613889, 40.648278]}}, {"type": "Feature", "properties": {"wikidata": "Q13178792", "name": "Toiano", "status": "done", "osm_id": "node/4140440771"}, "geometry": {"type": "Point", "coordinates": [14.08942, 40.84567]}}, {"type": "Feature", "properties": {"wikidata": "Q4012663", "name": "Villa d'Abro", "status": "missing", "osm_id": null}, "geometry": {"type": "Point", "coordinates": [14.206674, 40.811938]}}, {"type": "Feature", "properties": {"wikidata": "Q4012662", "name": "Villa comunale di Salerno", "status": "done", "osm_id": "relation/9531707"}, "geometry": {"type": "Point", "coordinates": [14.75354, 40.67859]}}, {"type": "Feature", "properties": {"wikidata": "Q16161762", "name": "chiesa dell'Arciconfraternita Estaurita del Santissimo Sacramento", "status": "done", "osm_id": "way/1426464523"}, "geometry": {"type": "Point", "coordinates": [14.23791, 40.89241]}}, {"type": "Feature", "properties": {"wikidata": "Q30219235", "name": "Museo Angelo Rizzoli", "status": "done", "osm_id": "way/303038762"}, "geometry": {"type": "Point", "coordinates": [13.88479, 40.75243]}}, {"type": "Feature", "properties": {"wikidata": "Q18437410", "name": "Fornelli", "status": "done", "osm_id": "node/1117734484"}, "geometry": {"type": "Point", "coordinates": [14.99859, 40.24332]}}, {"type": "Feature", "properties": {"wikidata": "Q18437414", "name": "Fusara di Baronissi", "status": "missing", "osm_id": null}, "geometry": {"type": "Point", "coordinates": [14.79557, 40.73629]}}, {"type": "Feature", "properties": {"wikidata": "Q3860452", "name": "monastero delle Orsoline", "status": "done", "osm_id": "relation/3633199"}, "geometry": {"type": "Point", "coordinates": [14.77546944, 41.13002778]}}, {"type": "Feature", "properties": {"wikidata": "Q3861280", "name": "Monte Calvello", "status": "missing", "osm_id": null}, "geometry": {"type": "Point", "coordinates": [15.1594969, 40.8152801]}}, {"type": "Feature", "properties": {"wikidata": "Q3860219", "name": "Molina", "status": "done", "osm_id": "node/3569814486"}, "geometry": {"type": "Point", "coordinates": [14.7206, 40.68317]}}, {"type": "Feature", "properties": {"wikidata": "Q3860415", "name": "monastero degli Zoccolanti", "status": "missing", "osm_id": null}, "geometry": {"type": "Point", "coordinates": [14.3659, 40.7893]}}, {"type": "Feature", "properties": {"wikidata": "Q3861174", "name": "Monte Altieri", "status": "done", "osm_id": "node/6295756643"}, "geometry": {"type": "Point", "coordinates": [15.0261, 41.3103]}}, {"type": "Feature", "properties": {"wikidata": "Q3831997", "name": "Licignano di Napoli", "status": "missing", "osm_id": null}, "geometry": {"type": "Point", "coordinates": [14.35, 40.916666666]}}, {"type": "Feature", "properties": {"wikidata": "Q3862596", "name": "Monumenti funerari di piazza del Corso", "status": "done", "osm_id": "way/307495324"}, "geometry": {"type": "Point", "coordinates": [14.63765278, 40.74301667]}}, {"type": "Feature", "properties": {"wikidata": "Q30890951", "name": "Monumento ai caduti", "status": "missing", "osm_id": null}, "geometry": {"type": "Point", "coordinates": [14.122068743, 40.821485022]}}, {"type": "Feature", "properties": {"wikidata": "Q30888300", "name": "Polvica di Nola", "status": "done", "osm_id": "node/4406284770"}, "geometry": {"type": "Point", "coordinates": [14.463889, 40.982778]}}, {"type": "Feature", "properties": {"wikidata": "Q30880401", "name": "Eliporto di Capri", "status": "missing", "osm_id": null}, "geometry": {"type": "Point", "coordinates": [14.20141944, 40.55855]}}, {"type": "Feature", "properties": {"wikidata": "Q30888552", "name": "chiesa di San Domenico e Santa Maria della Porta", "status": "done", "osm_id": "way/280441176"}, "geometry": {"type": "Point", "coordinates": [14.759667, 40.681306]}}, {"type": "Feature", "properties": {"wikidata": "Q30888942", "name": "Biblioteca territoriale diocesana di Montevergine", "status": "missing", "osm_id": null}, "geometry": {"type": "Point", "coordinates": [14.728311569, 40.935728364]}}, {"type": "Feature", "properties": {"wikidata": "Q27688047", "name": "corridoio (VIII.2.9)", "status": "missing", "osm_id": null}, "geometry": {"type": "Point", "coordinates": [14.485153937, 40.748783315]}}, {"type": "Feature", "properties": {"wikidata": "Q27688127", "name": "ingresso per piano inferiore (VIII.3.17)", "status": "missing", "osm_id": null}, "geometry": {"type": "Point", "coordinates": [14.485818681, 40.748300418]}}, {"type": "Feature", "properties": {"wikidata": "Q27688079", "name": "corridoio (VIII.2.27)", "status": "missing", "osm_id": null}, "geometry": {"type": "Point", "coordinates": [14.486315501, 40.748396795]}}, {"type": "Feature", "properties": {"wikidata": "Q45113571", "name": "Archivio di Stato di Napoli. Sezione dell'Abbazia di Montevergine", "status": "missing", "osm_id": null}, "geometry": {"type": "Point", "coordinates": [14.728335, 40.935725]}}, {"type": "Feature", "properties": {"wikidata": "Q49283052", "name": "Fragneto l'Abate", "status": "missing", "osm_id": null}, "geometry": {"type": "Point", "coordinates": [14.78382, 41.2558]}}, {"type": "Feature", "properties": {"wikidata": "Q47354861", "name": "Marina della Lobra", "status": "missing", "osm_id": null}, "geometry": {"type": "Point", "coordinates": [14.33, 40.6]}}, {"type": "Feature", "properties": {"wikidata": "Q45113386", "name": "Archivio di Stato di Napoli. Sezione della Badia di Cava", "status": "missing", "osm_id": null}, "geometry": {"type": "Point", "coordinates": [14.691124, 40.682164]}}, {"type": "Feature", "properties": {"wikidata": "Q45031330", "name": "Archivio di Stato di Caserta. Fondo Reggia", "status": "missing", "osm_id": null}, "geometry": {"type": "Point", "coordinates": [14.32709, 41.073259]}}, {"type": "Feature", "properties": {"wikidata": "Q49289211", "name": "Sant'Angelo a Scala", "status": "missing", "osm_id": null}, "geometry": {"type": "Point", "coordinates": [14.74041, 40.97465]}}, {"type": "Feature", "properties": {"wikidata": "Q47355145", "name": "Marina di Pisciotta", "status": "done", "osm_id": "node/1239119539"}, "geometry": {"type": "Point", "coordinates": [15.2260853, 40.1038517]}}, {"type": "Feature", "properties": {"wikidata": "Q42181360", "name": "Ipercoop Tirreno", "status": "missing", "osm_id": null}, "geometry": {"type": "Point", "coordinates": [14.270209, 40.862758]}}, {"type": "Feature", "properties": {"wikidata": "Q49286923", "name": "Morra De Sanctis", "status": "done", "osm_id": "node/68566462"}, "geometry": {"type": "Point", "coordinates": [15.24285, 40.92902]}}, {"type": "Feature", "properties": {"wikidata": "Q49289219", "name": "Santa Maria la Carit\u00e0", "status": "missing", "osm_id": null}, "geometry": {"type": "Point", "coordinates": [14.50984, 40.71611]}}, {"type": "Feature", "properties": {"wikidata": "Q49281753", "name": "Capriati a Volturno", "status": "missing", "osm_id": null}, "geometry": {"type": "Point", "coordinates": [14.14602, 41.46801]}}, {"type": "Feature", "properties": {"wikidata": "Q49289214", "name": "Sant'Angelo all'Esca", "status": "missing", "osm_id": null}, "geometry": {"type": "Point", "coordinates": [14.99305, 41.00662]}}, {"type": "Feature", "properties": {"wikidata": "Q49289208", "name": "Sant'Angelo a Cupolo", "status": "missing", "osm_id": null}, "geometry": {"type": "Point", "coordinates": [14.80374, 41.06912]}}, {"type": "Feature", "properties": {"wikidata": "Q49289051", "name": "San Giovanni a Piro", "status": "missing", "osm_id": null}, "geometry": {"type": "Point", "coordinates": [15.4462, 40.0515]}}, {"type": "Feature", "properties": {"wikidata": "Q49291717", "name": "Torre Le Nocelle", "status": "missing", "osm_id": null}, "geometry": {"type": "Point", "coordinates": [14.90934, 41.02312]}}, {"type": "Feature", "properties": {"wikidata": "Q55685885", "name": "parco archeologico dei Campi Flegrei - parco archeologico di Cuma", "status": "missing", "osm_id": null}, "geometry": {"type": "Point", "coordinates": [14.054379, 40.848988]}}, {"type": "Feature", "properties": {"wikidata": "Q55686618", "name": "Museo del Palazzo della Dogana dei Grani", "status": "missing", "osm_id": null}, "geometry": {"type": "Point", "coordinates": [14.833784, 40.92128]}}, {"type": "Feature", "properties": {"wikidata": "Q55741261", "name": "castagno", "status": "missing", "osm_id": null}, "geometry": {"type": "Point", "coordinates": [14.81465, 40.885678]}}, {"type": "Feature", "properties": {"wikidata": "Q55675717", "name": "Museo paleontologico", "status": "missing", "osm_id": null}, "geometry": {"type": "Point", "coordinates": [15.236617, 40.347363]}}, {"type": "Feature", "properties": {"wikidata": "Q55685739", "name": "Museo della Biodiversit\u00e0 - CITES", "status": "missing", "osm_id": null}, "geometry": {"type": "Point", "coordinates": [14.507463, 40.695633]}}, {"type": "Feature", "properties": {"wikidata": "Q55741274", "name": "leccio", "status": "missing", "osm_id": null}, "geometry": {"type": "Point", "coordinates": [15.251936, 40.852019]}}, {"type": "Feature", "properties": {"wikidata": "Q55741269", "name": "tiglio comune", "status": "missing", "osm_id": null}, "geometry": {"type": "Point", "coordinates": [14.749703, 40.861122]}}, {"type": "Feature", "properties": {"wikidata": "Q55741284", "name": "casuarina", "status": "missing", "osm_id": null}, "geometry": {"type": "Point", "coordinates": [14.332417, 41.075528]}}, {"type": "Feature", "properties": {"wikidata": "Q55741271", "name": "tiglio selvatico", "status": "missing", "osm_id": null}, "geometry": {"type": "Point", "coordinates": [14.847031, 40.950783]}}, {"type": "Feature", "properties": {"wikidata": "Q55675084", "name": "complesso museale Santa Maria delle Anime del Purgatorio ad Arco", "status": "missing", "osm_id": null}, "geometry": {"type": "Point", "coordinates": [14.255869, 40.8505]}}, {"type": "Feature", "properties": {"wikidata": "Q55678862", "name": "complesso monumentale San Pietro a Corte - ipogeo e Chiesa S.Anna", "status": "missing", "osm_id": null}, "geometry": {"type": "Point", "coordinates": [14.757593, 40.67942]}}, {"type": "Feature", "properties": {"wikidata": "Q55741287", "name": "leccio", "status": "missing", "osm_id": null}, "geometry": {"type": "Point", "coordinates": [14.473008, 40.691017]}}, {"type": "Feature", "properties": {"wikidata": "Q55741268", "name": "platano comune", "status": "missing", "osm_id": null}, "geometry": {"type": "Point", "coordinates": [14.733397, 40.861294]}}, {"type": "Feature", "properties": {"wikidata": "Q55741262", "name": "platano occidentale", "status": "missing", "osm_id": null}, "geometry": {"type": "Point", "coordinates": [14.819361, 40.884889]}}, {"type": "Feature", "properties": {"wikidata": "Q55678884", "name": "sala Espositiva presso il Castello Ducale di Sessa Aurunca", "status": "missing", "osm_id": null}, "geometry": {"type": "Point", "coordinates": [13.933059, 41.238297]}}, {"type": "Feature", "properties": {"wikidata": "Q55678229", "name": "complesso monumentale di S. Chiara", "status": "missing", "osm_id": null}, "geometry": {"type": "Point", "coordinates": [14.254671, 40.84554]}}, {"type": "Feature", "properties": {"wikidata": "Q55741280", "name": "albero della canfora", "status": "missing", "osm_id": null}, "geometry": {"type": "Point", "coordinates": [14.34135, 41.089233]}}, {"type": "Feature", "properties": {"wikidata": "Q55741272", "name": "tiglio selvatico", "status": "missing", "osm_id": null}, "geometry": {"type": "Point", "coordinates": [15.164303, 40.951592]}}, {"type": "Feature", "properties": {"wikidata": "Q55685813", "name": "villa romana di Cellole", "status": "done", "osm_id": "way/262437443"}, "geometry": {"type": "Point", "coordinates": [13.840649, 41.15864]}}, {"type": "Feature", "properties": {"wikidata": "Q55686395", "name": "area archeologica di Fratte", "status": "missing", "osm_id": null}, "geometry": {"type": "Point", "coordinates": [14.765912, 40.677956]}}, {"type": "Feature", "properties": {"wikidata": "Q55741267", "name": "cerro", "status": "missing", "osm_id": null}, "geometry": {"type": "Point", "coordinates": [14.766669, 40.874758]}}, {"type": "Feature", "properties": {"wikidata": "Q55741283", "name": "pino del Cile", "status": "missing", "osm_id": null}, "geometry": {"type": "Point", "coordinates": [14.332083, 41.075083]}}, {"type": "Feature", "properties": {"wikidata": "Q55741264", "name": "roverella", "status": "missing", "osm_id": null}, "geometry": {"type": "Point", "coordinates": [14.816658, 40.887978]}}, {"type": "Feature", "properties": {"wikidata": "Q55741263", "name": "carpino bianco", "status": "missing", "osm_id": null}, "geometry": {"type": "Point", "coordinates": [14.820628, 40.897331]}},